ID,Source,Severity,Start_Time,End_Time,Start_Lat,Start_Lng,End_Lat,End_Lng,Distance(mi),Description,Street,City,County,State,Zipcode,Country,Timezone,Airport_Code,Weather_Timestamp,Temperature(F),Wind_Chill(F),Humidity(%),Pressure(in),Visibility(mi),Wind_Direction,Wind_Speed(mph),Precipitation(in),Weather_Condition,Amenity,Bump,Crossing,Give_Way,Junction,No_Exit,Railway,Roundabout,Station,Stop,Traffic_Calming,Traffic_Signal,Turning_Loop,Sunrise_Sunset,Civil_Twilight,Nautical_Twilight,Astronomical_Twilight
A-512646,Source2,3,2022-09-08 09:40:05+00:00,2022-09-08 10:10:00+00:00,41.871464,-87.744164,,,0.0,Lane blocked due to crash on I-290 Eisenhower Expy Eastbound at Exit 24B Lexington St.,Eisenhower Expy,Chicago,Cook,IL,60644,US,US/Central,KMDW,2022-09-08 09:53:00,76.0,76.0,56.0,29.37,10.0,SW,3.0,0.0,Fair,False,False,False,False,False,False,False,False,False,False,False,False,False,Day,Day,Day,Day
A-512724,Source2,3,2022-09-08 08:12:51+00:00,2022-09-08 09:13:49+00:00,41.694263,-87.659653,,,0.0,Lane blocked due to crash on I-57 Northbound at Exit 355 111th St.,W 110th St,Chicago,Cook,IL,60643-3620,US,US/Central,KMDW,2022-09-08 07:53:00,69.0,69.0,65.0,29.39,10.0,CALM,0.0,0.0,Fair,False,False,False,False,False,False,False,False,False,False,False,False,False,Day,Day,Day,Day
A-512744,Source2,3,2022-09-08 07:29:25+00:00,2022-09-08 07:58:52+00:00,41.875534,-87.666122,,,0.0,Lane blocked due to crash on I-290 Eisenhower Expy Eastbound at Exit 28 Ashland Ave.,S Loomis St,Chicago,Cook,IL,60607-2835,US,US/Central,KMDW,2022-09-08 07:53:00,69.0,69.0,65.0,29.39,10.0,CALM,0.0,0.0,Fair,False,False,False,False,False,False,False,False,False,False,False,False,False,Day,Day,Day,Day
A-512760,Source2,1,2022-09-08 08:29:54+00:00,2022-09-08 08:59:48+00:00,41.87804000000001,-87.641037,,,0.0,Crash on Jackson Blvd at Clinton St.,S Clinton St,Chicago,Cook,IL,60661,US,US/Central,KMDW,2022-09-08 08:53:00,72.0,72.0,64.0,29.39,10.0,CALM,0.0,0.0,Fair,True,False,True,False,False,False,False,False,True,False,False,True,False,Day,Day,Day,Day
A-512824,Source2,1,2022-09-08 08:11:34+00:00,2022-09-08 09:12:04+00:00,41.893261,-87.629707,,,0.0,Crash on Ontario St at Dearborn St.,N Dearborn St,Chicago,Cook,IL,60654-3802,US,US/Central,KMDW,2022-09-08 07:53:00,69.0,69.0,65.0,29.39,10.0,CALM,0.0,0.0,Fair,True,False,True,False,False,False,False,False,True,False,False,True,False,Day,Day,Day,Day
A-512865,Source2,3,2022-09-08 07:22:03+00:00,2022-09-08 07:51:24+00:00,41.859779,-87.641052,,,2.470000028610229,Lane blocked due to crash on I-55 Northbound between Exit 290 Damen Ave and Exit 292 Dan Ryan Expy.,W 16th St,Chicago,Cook,IL,60616-1146,US,US/Central,KMDW,2022-09-08 06:53:00,65.0,65.0,75.0,29.39,10.0,CALM,0.0,0.0,Fair,False,False,True,False,False,False,False,False,False,False,False,False,False,Day,Day,Day,Day
A-512932,Source2,1,2022-09-08 06:59:41+00:00,2022-09-08 07:29:30+00:00,41.884911,-87.61398299999998,,,0.0,Crash on US-41 Jean Baptiste Pointe Dusable Lk Shr Dr near Randolph St.,N DuSable Lake Shore Dr,Chicago,Cook,IL,60601,US,US/Central,KMDW,2022-09-08 06:53:00,65.0,65.0,75.0,29.39,10.0,CALM,0.0,0.0,Fair,False,False,False,False,False,False,False,False,False,False,False,False,False,Day,Day,Day,Day
A-512995,Source3,3,2022-09-08 06:24:07+00:00,2022-09-08 06:53:51+00:00,41.859173,-87.64444,,,0.0,Lane blocked due to crash on I-90 Dan Ryan Express Lane Eastbound at Exit 52 17th St.,Dan Ryan Expy E,Chicago,Cook,IL,60616,US,US/Central,KMDW,2022-09-08 06:53:00,65.0,65.0,75.0,29.39,10.0,CALM,0.0,0.0,Fair,False,False,False,False,False,False,False,False,False,False,False,False,False,Day,Day,Day,Day
A-513191,Source2,3,2022-09-07 03:24:54+00:00,2022-09-07 03:53:55+00:00,41.805801,-87.632286,,,0.0,Lane blocked due to crash on I-90 Dan Ryan Expy Westbound at Wells St.,Dan Ryan Expy E,Chicago,Cook,IL,60609,US,US/Central,KMDW,2022-09-07 03:53:00,70.0,70.0,81.0,29.46,10.0,NNW,3.0,0.0,Mostly Cloudy,False,False,False,False,False,False,False,False,False,False,False,False,False,Night,Night,Night,Night
A-513245,Source2,3,2022-09-07 03:20:11+00:00,2022-09-07 04:03:31+00:00,41.660538,-87.588875,,,0.0,Lane blocked due to crash on I-94 Bishop Ford Fwy at Exits 68A 68B 130th St.,Bishop Ford Fwy W,Chicago,Cook,IL,60633,US,US/Central,KGYY,2022-09-07 03:15:00,65.0,65.0,95.0,29.5,10.0,N,3.0,0.0,Cloudy,False,False,False,False,True,False,False,False,False,False,False,False,False,Night,Night,Night,Night
A-513351,Source2,1,2022-09-07 18:41:31+00:00,2022-09-07 19:41:12+00:00,41.860882,-88.1912,,,0.0,Crash on IL-38 Roosevelt Rd at River Glen Rd.,Roosevelt Rd,West Chicago,DuPage,IL,60185,US,US/Central,KDPA,2022-09-07 18:52:00,74.0,74.0,57.0,29.26,10.0,N,5.0,0.0,Fair,False,False,False,False,False,False,False,False,False,False,False,False,False,Day,Day,Day,Day
A-513355,Source2,2,2022-09-07 18:43:25+00:00,2022-09-07 19:28:02+00:00,41.967754,-87.75544000000002,,,0.0,Crash on I-90 Kennedy Expy Eastbound at Exit 84 Lawrence Ave.,W Lawrence Ave,Chicago,Cook,IL,60630-3823,US,US/Central,KORD,2022-09-07 18:51:00,76.0,76.0,52.0,29.35,10.0,ENE,8.0,0.0,Fair,False,False,False,False,False,False,False,False,False,False,False,False,False,Day,Day,Day,Day
A-513356,Source2,2,2022-09-07 17:44:50+00:00,2022-09-07 18:29:32+00:00,41.98344,-87.817963,,,0.0,Crash on I-90 Kennedy Expy Eastbound at Exit 80 IL-72 Higgins Ave.,Kennedy Expy W,Chicago,Cook,IL,60631,US,US/Central,KORD,2022-09-07 17:51:00,78.0,78.0,48.0,29.36,10.0,NE,7.0,0.0,Fair,False,False,False,False,True,False,False,False,False,False,False,False,False,Day,Day,Day,Day
A-513445,Source2,2,2022-09-07 17:41:11+00:00,2022-09-07 18:40:34+00:00,41.883141,-87.646019,,,0.0,Crash on I-90 Dan Ryan Express Lane Eastbound at I-90 Dan Ryan Express Lane Exit 53C / I-90 Dan Ryan Expy Exits 51 / I-55 Exits 292.,W Washington Blvd,Chicago,Cook,IL,60661,US,US/Central,KMDW,2022-09-07 17:53:00,79.0,79.0,42.0,29.42,10.0,NE,13.0,0.0,Fair,False,False,False,False,True,False,False,False,False,False,False,False,False,Day,Day,Day,Day
A-513550,Source2,2,2022-09-07 16:48:36+00:00,2022-09-07 17:18:17+00:00,41.726334,-87.624863,,,0.0,Crash on I-94 Dan Ryan Expy Eastbound at Exit 62 Lafayette Ave.,S Lafayette Ave,Chicago,Cook,IL,60620,US,US/Central,KMDW,2022-09-07 16:53:00,81.0,81.0,38.0,29.42,10.0,NNE,13.0,0.0,Fair,False,False,False,False,False,False,False,False,False,False,False,False,False,Day,Day,Day,Day
A-513551,Source2,2,2022-09-07 16:14:08+00:00,2022-09-07 17:13:23+00:00,41.95723,-87.737442,,,0.0,Crash on I-90 Kennedy Expy Eastbound at Exit 43C Montrose Ave.,Kennedy Expy E,Chicago,Cook,IL,60641,US,US/Central,KORD,2022-09-07 15:51:00,80.0,80.0,45.0,29.37,10.0,ENE,10.0,0.0,Partly Cloudy,False,False,False,False,True,False,False,False,False,False,False,False,False,Day,Day,Day,Day
A-513552,Source2,2,2022-09-07 16:15:00+00:00,2022-09-07 17:14:35+00:00,41.964085,-87.745956,,,0.0,Crash on I-94 Edens Expy Eastbound at Exit 43A Wilson Ave.,Edens Expy N,Chicago,Cook,IL,60630,US,US/Central,KORD,2022-09-07 15:51:00,80.0,80.0,45.0,29.37,10.0,ENE,10.0,0.0,Partly Cloudy,False,False,False,False,False,False,False,False,False,False,False,False,False,Day,Day,Day,Day
A-513558,Source2,2,2022-09-07 17:25:14+00:00,2022-09-07 17:54:25+00:00,41.867565,-87.64475999999998,,,0.0,Crash on I-90 Dan Ryan Express Lane Eastbound at I-90 Dan Ryan Express Lane Exit 53C / I-90 Dan Ryan Expy Exits 52 / I-55 Exits 29.,Dan Ryan Expy E,Chicago,Cook,IL,60607,US,US/Central,KMDW,2022-09-07 17:53:00,79.0,79.0,42.0,29.42,10.0,NE,13.0,0.0,Fair,False,False,False,False,False,False,False,False,False,False,False,False,False,Day,Day,Day,Day
A-513617,Source2,2,2022-09-07 16:25:46+00:00,2022-09-07 16:55:29+00:00,41.875839,-87.676773,,,0.0,Crash on I-290 Eisenhower Expy Westbound at Exits 27C 28A Van Buren St.,Eisenhower Expy,Chicago,Cook,IL,60612,US,US/Central,KMDW,2022-09-07 16:53:00,81.0,81.0,38.0,29.42,10.0,NNE,13.0,0.0,Fair,False,False,False,False,False,False,False,False,False,False,False,False,False,Day,Day,Day,Day
A-513723,Source2,3,2022-09-07 13:32:21+00:00,2022-09-07 14:17:09+00:00,41.875835,-87.690926,,,0.0,Right lane blocked due to crash on I-290 Eisenhower Expy Southbound at Exit 27B Van Buren St.,W Van Buren St,Chicago,Cook,IL,60612,US,US/Central,KMDW,2022-09-07 13:53:00,81.0,81.0,44.0,29.46,10.0,ENE,9.0,0.0,Partly Cloudy,False,False,False,False,False,False,False,False,False,False,False,False,False,Day,Day,Day,Day
A-513762,Source2,3,2022-09-07 12:23:17+00:00,2022-09-07 13:25:02+00:00,41.871792,-87.744827,,,0.0,Lane blocked due to crash on I-290 Eisenhower Expy Westbound after Exit 25 Congress Pkwy.,Eisenhower Expy,Chicago,Cook,IL,60644,US,US/Central,KMDW,2022-09-07 12:53:00,81.0,81.0,44.0,29.47,10.0,ENE,12.0,0.0,Partly Cloudy,False,False,True,False,False,False,True,False,True,False,False,True,False,Day,Day,Day,Day
A-513764,Source2,3,2022-09-07 12:10:12+00:00,2022-09-07 12:39:59+00:00,41.925976,-87.68445600000004,,,0.0,Lane blocked due to crash on I-90 Kennedy Expy Eastbound at Exit 47A Fullerton Ave.,I-90 Express Lane,Chicago,Cook,IL,60647,US,US/Central,KMDW,2022-09-07 11:53:00,79.0,79.0,45.0,29.49,10.0,ENE,10.0,0.0,Partly Cloudy,False,False,False,False,False,False,False,False,False,False,False,False,False,Day,Day,Day,Day
A-513829,Source2,3,2022-09-07 03:50:15+00:00,2022-09-07 04:20:40+00:00,41.829338,-87.704567,,,0.0,Lane blocked due to crash on I-55 Stevenson Expy Northbound at Exits 288 289 California Ave.,S Kedzie Ave,Chicago,Cook,IL,60632,US,US/Central,KMDW,2022-09-07 03:53:00,70.0,70.0,81.0,29.46,10.0,NNW,3.0,0.0,Mostly Cloudy,False,False,False,False,False,False,False,False,False,False,False,False,False,Night,Night,Night,Night
A-513902,Source2,3,2022-09-07 08:56:05+00:00,2022-09-07 09:25:38+00:00,41.660538,-87.588875,,,0.0,Lane blocked due to crash on I-94 Bishop Ford Fwy Westbound at Exit 68 130th St.,Bishop Ford Fwy W,Chicago,Cook,IL,60633,US,US/Central,KGYY,2022-09-07 08:45:00,72.0,72.0,73.0,29.54,10.0,CALM,0.0,0.0,Mostly Cloudy,False,False,False,False,True,False,False,False,False,False,False,False,False,Day,Day,Day,Day
A-513927,Source2,3,2022-09-07 08:18:43+00:00,2022-09-07 09:03:39+00:00,41.857704,-87.64415699999998,,,0.0,Lane blocked due to crash on I-90 Dan Ryan Express Lane Westbound at Exit 52 18th St.,Dan Ryan Expy W,Chicago,Cook,IL,60616,US,US/Central,KMDW,2022-09-07 07:53:00,71.0,71.0,75.0,29.5,10.0,NNW,8.0,0.0,Mostly Cloudy,False,False,True,False,True,False,False,False,False,False,False,True,False,Day,Day,Day,Day
A-513928,Source2,3,2022-09-07 08:27:23+00:00,2022-09-07 08:56:36+00:00,41.859779,-87.641052,,,2.470000028610229,Lane blocked due to crash on I-55 Northbound between Exit 290 Damen Ave and Exit 292 I-90 Dan Ryan Expy.,W 16th St,Chicago,Cook,IL,60616-1146,US,US/Central,KMDW,2022-09-07 08:53:00,72.0,72.0,71.0,29.5,10.0,N,6.0,0.0,Partly Cloudy,False,False,True,False,False,False,False,False,False,False,False,False,False,Day,Day,Day,Day
A-513929,Source2,3,2022-09-07 08:53:21+00:00,2022-09-07 09:22:52+00:00,41.873402,-87.7332,,,0.0,Lane blocked due to crash on I-290 Eisenhower Expy Eastbound at Exit 25 Kostner Ave.,W Harrison St,Chicago,Cook,IL,60624,US,US/Central,KMDW,2022-09-07 08:53:00,72.0,72.0,71.0,29.5,10.0,N,6.0,0.0,Partly Cloudy,False,False,True,False,False,False,False,False,False,False,False,False,False,Day,Day,Day,Day
A-513937,Source2,3,2022-09-07 08:30:24+00:00,2022-09-07 08:59:47+00:00,41.875542,-87.645287,,,0.0,Lane blocked due to crash on I-90 Dan Ryan Express Lane Westbound at Exit 51 I-290.,Kennedy Expy W,Chicago,Cook,IL,60607,US,US/Central,KMDW,2022-09-07 08:53:00,72.0,72.0,71.0,29.5,10.0,N,6.0,0.0,Partly Cloudy,False,False,False,False,False,False,False,False,False,False,False,False,False,Day,Day,Day,Day
A-514043,Source2,1,2022-09-07 08:25:50+00:00,2022-09-07 08:55:43+00:00,41.913288,-87.631737,,,0.0,Crash on Stockton Dr at IL-64.,N Stockton Dr,Chicago,Cook,IL,60614,US,US/Central,KMDW,2022-09-07 08:53:00,72.0,72.0,71.0,29.5,10.0,N,6.0,0.0,Partly Cloudy,False,False,False,False,False,False,False,False,False,False,False,True,False,Day,Day,Day,Day
A-514063,Source2,1,2022-09-07 08:14:07+00:00,2022-09-07 08:59:30+00:00,41.879021,-88.244263,,,0.0,Crash on CR-18 Kress Rd at IL-38 Roosevelt Rd.,W Roosevelt Rd,West Chicago,DuPage,IL,60185-6005,US,US/Central,KDPA,2022-09-07 07:52:00,65.0,65.0,87.0,29.36,8.0,NNW,5.0,0.0,Mostly Cloudy,False,False,False,False,False,False,False,False,False,True,False,True,False,Day,Day,Day,Day
A-514076,Source2,1,2022-09-07 08:32:03+00:00,2022-09-07 09:01:55+00:00,41.75182,-87.58602900000002,,,0.0,Crash on South Chicago Ave at Stony Island Ave.,S Stony Island Ave,Chicago,Cook,IL,60619,US,US/Central,KMDW,2022-09-07 08:53:00,72.0,72.0,71.0,29.5,10.0,N,6.0,0.0,Partly Cloudy,False,False,True,False,False,False,False,False,True,False,False,True,False,Day,Day,Day,Day
A-514088,Source2,1,2022-09-07 08:38:57+00:00,2022-09-07 09:08:00+00:00,41.88448,-87.624413,,,0.0,Crash bicyclist involved on Michigan Ave near Randolph St.,N Michigan Ave,Chicago,Cook,IL,60601,US,US/Central,KMDW,2022-09-07 08:53:00,72.0,72.0,71.0,29.5,10.0,N,6.0,0.0,Partly Cloudy,True,False,True,False,False,False,True,False,True,False,False,True,False,Day,Day,Day,Day
A-514089,Source2,1,2022-09-07 08:20:51+00:00,2022-09-07 09:06:11+00:00,41.932098,-87.697601,,,0.0,Crash on Diversey Ave at California Ave.,N California Ave,Chicago,Cook,IL,60647-1735,US,US/Central,KMDW,2022-09-07 07:53:00,71.0,71.0,75.0,29.5,10.0,NNW,8.0,0.0,Mostly Cloudy,False,False,True,False,False,False,False,False,True,False,False,True,False,Day,Day,Day,Day
A-514110,Source2,3,2022-09-07 07:53:12+00:00,2022-09-07 08:22:56+00:00,41.817348,-87.74282099999998,,,0.0,Lane blocked due to crash on I-55 Stevenson Expy Southbound at Exit 286 IL-50 Cicero Ave.,Adlai E Stevenson Expy N,Chicago,Cook,IL,60632,US,US/Central,KMDW,2022-09-07 07:53:00,71.0,71.0,75.0,29.5,10.0,NNW,8.0,0.0,Mostly Cloudy,False,False,False,False,False,False,False,False,False,False,False,False,False,Day,Day,Day,Day
A-514155,Source2,3,2022-09-07 07:47:22+00:00,2022-09-07 08:32:28+00:00,41.954742,-87.73266600000002,,,0.0,Lane blocked due to crash on I-90 Kennedy Expy Eastbound at Exit 44A IL-19 Irving Park Rd.,I-90 Express Lane,Chicago,Cook,IL,60641,US,US/Central,KORD,2022-09-07 07:51:00,67.0,67.0,81.0,29.44,10.0,N,9.0,0.0,Mostly Cloudy,False,False,False,False,False,False,False,False,False,False,False,False,False,Day,Day,Day,Day
A-514168,Source2,3,2022-09-07 07:34:02+00:00,2022-09-07 08:34:32+00:00,41.98233,-87.814194,,,0.0,Lane blocked due to crash on I-90 Kennedy Expy Eastbound near Exit 81A IL-72 Higgins Ave.,I-90,Chicago,Cook,IL,60631,US,US/Central,KORD,2022-09-07 07:51:00,67.0,67.0,81.0,29.44,10.0,N,9.0,0.0,Mostly Cloudy,False,False,False,False,False,False,False,False,False,False,False,False,False,Day,Day,Day,Day
A-514362,Source2,3,2022-09-07 06:11:10+00:00,2022-09-07 06:55:50+00:00,41.688717,-87.599983,,,0.0,Lane blocked due to crash on I-94 Bishop Ford Fwy Westbound at Exit 66 111th St.,Bishop Ford Fwy W,Chicago,Cook,IL,60628,US,US/Central,KMDW,2022-09-07 05:53:00,69.0,69.0,84.0,29.47,10.0,NNW,6.0,0.0,Mostly Cloudy,False,False,False,False,False,False,False,False,False,False,False,False,False,Night,Day,Day,Day
A-514363,Source2,1,2022-09-07 06:49:12+00:00,2022-09-07 07:19:07+00:00,41.87569000000001,-87.62603,,,0.0,Crash on Ida B Wells Dr at Wabash Ave.,S Wabash Ave,Chicago,Cook,IL,60605-1209,US,US/Central,KMDW,2022-09-07 06:53:00,69.0,69.0,81.0,29.48,8.0,NW,3.0,0.0,Partly Cloudy,True,False,True,False,False,False,False,False,True,False,False,True,False,Day,Day,Day,Day
A-514453,Source2,1,2022-09-07 05:55:50+00:00,2022-09-07 06:41:13+00:00,41.759998,-87.753563,,,0.0,Crash motorcycle involved on 73rd St at Lockwood Ave.,S Lockwood Ave,Chicago,Cook,IL,60638,US,US/Central,KMDW,2022-09-07 05:53:00,69.0,69.0,84.0,29.47,10.0,NNW,6.0,0.0,Mostly Cloudy,False,False,False,False,False,False,False,False,True,False,False,False,False,Night,Day,Day,Day
A-514489,Source2,3,2022-09-07 04:59:47+00:00,2022-09-07 05:29:26+00:00,41.809361,-87.631424,,,0.0,Lane blocked due to crash on I-90 Dan Ryan Express Lane Westbound at Exit 46 47th St.,I-90 Express Lane,Chicago,Cook,IL,60609,US,US/Central,KMDW,2022-09-07 04:53:00,68.0,68.0,87.0,29.46,10.0,NW,6.0,0.0,Mostly Cloudy,False,False,True,False,False,False,False,False,True,False,False,True,False,Night,Night,Night,Day
A-514876,Source2,2,2022-09-06 05:00:15+00:00,2022-09-06 06:01:14+00:00,41.848541,-87.61348000000002,,,0.0,Left lane blocked due to crash on US-41 Jean Baptiste Pointe Dusable Lk Shr Dr Southbound at I-55 Stevenson Expy.,MC 8th Dr,Chicago,Cook,IL,60616,US,US/Central,KMDW,2022-09-06 04:53:00,71.0,71.0,78.0,29.41,10.0,N,6.0,0.0,Cloudy,False,False,False,False,False,False,False,False,False,False,False,False,False,Night,Night,Night,Day
A-514877,Source2,3,2022-09-06 04:31:09+00:00,2022-09-06 05:32:26+00:00,41.871059,-87.764015,,,0.0,Lane blocked due to crash on I-290 Eisenhower Expy Eastbound at Exit 23B Central Ave.,Chicago-Kansas City Expressway E,Chicago,Cook,IL,60644,US,US/Central,KMDW,2022-09-06 04:53:00,71.0,71.0,78.0,29.41,10.0,N,6.0,0.0,Cloudy,False,False,False,False,False,False,False,False,False,False,False,False,False,Night,Night,Night,Night
A-515264,Source2,3,2022-09-06 08:12:27+00:00,2022-09-06 08:42:02+00:00,41.871693,-87.754272,,,0.0,Lane blocked due to crash on I-290 Eisenhower Expy Westbound at Exit 24 Laramie Ave.,Eisenhower Expy W,Chicago,Cook,IL,60644,US,US/Central,KMDW,2022-09-06 08:00:00,73.0,73.0,76.0,29.45,10.0,E,9.0,0.0,Cloudy,False,False,False,False,False,False,False,False,False,False,False,False,False,Day,Day,Day,Day
A-515358,Source2,3,2022-09-06 09:37:20+00:00,2022-09-06 10:07:04+00:00,41.91813300000001,-87.670975,,,0.0,Lane blocked due to crash on I-90 Kennedy Expy Eastbound at Exit 48A Armitage Ave.,I-90 E,Chicago,Cook,IL,60614,US,US/Central,KMDW,2022-09-06 09:53:00,75.0,75.0,71.0,29.47,10.0,VAR,6.0,0.0,Mostly Cloudy,False,False,False,False,False,False,False,False,False,False,False,False,False,Day,Day,Day,Day
A-515380,Source2,3,2022-09-06 05:51:54+00:00,2022-09-06 06:21:24+00:00,41.715607,-87.62530500000004,,,2.8299999237060547,Lane blocked due to crash on I-94 Bishop Ford Fwy Westbound between Exit 65 Stony Island Ext and Exit 63 I-57.,Bishop Ford Fwy,Chicago,Cook,IL,60628,US,US/Central,KMDW,2022-09-06 05:53:00,71.0,71.0,78.0,29.42,10.0,N,3.0,0.0,Cloudy,False,False,False,False,False,False,False,False,False,False,False,False,False,Night,Night,Day,Day
A-515397,Source2,3,2022-09-06 08:57:01+00:00,2022-09-06 09:26:22+00:00,41.94133400000001,-87.712349,,,0.0,Lane blocked due to crash on I-90 Kennedy Expy Westbound at Exit 45 Kimball Ave.,Kennedy Expy W,Chicago,Cook,IL,60618,US,US/Central,KORD,2022-09-06 08:51:00,71.0,71.0,81.0,29.4,10.0,N,6.0,0.0,Partly Cloudy,False,False,False,False,False,False,False,False,False,False,False,False,False,Day,Day,Day,Day
A-515398,Source2,3,2022-09-06 07:44:43+00:00,2022-09-06 08:30:38+00:00,41.950802,-87.72551700000002,,,0.0,Lane blocked due to crash on I-90 Kennedy Expy Westbound at Exit 44B Pulaski Rd.,I-90 Express Lane,Chicago,Cook,IL,60618,US,US/Central,KORD,2022-09-06 07:51:00,68.0,68.0,87.0,29.4,10.0,N,5.0,0.0,Cloudy,False,False,False,False,False,False,False,False,False,False,False,False,False,Day,Day,Day,Day
A-515489,Source3,1,2022-09-06 07:36:57+00:00,2022-09-06 08:06:47+00:00,41.877525,-88.194695,,,0.0,Crash on IL-59 Neltnor Blvd at Blair St.,S Neltnor Blvd,West Chicago,DuPage,IL,60185,US,US/Central,KDPA,2022-09-06 07:52:00,68.0,68.0,87.0,29.31,10.0,N,5.0,0.0,Cloudy,False,False,False,False,False,False,False,False,False,True,False,False,False,Day,Day,Day,Day
A-515490,Source2,1,2022-09-06 08:23:07+00:00,2022-09-06 09:08:14+00:00,41.910919,-87.648262,,,0.0,Crash on IL-64 North Ave at Halsted St.,W North Ave,Chicago,Cook,IL,60610-1012,US,US/Central,KMDW,2022-09-06 08:00:00,73.0,73.0,76.0,29.45,10.0,E,9.0,0.0,Cloudy,True,False,True,False,False,False,False,False,True,False,False,True,False,Day,Day,Day,Day
A-515521,Source2,3,2022-09-06 07:45:35+00:00,2022-09-06 08:30:40+00:00,41.694263,-87.659653,,,3.0999999046325684,Lane blocked due to crash on I-57 Southbound between Exit 357 98th Pl and Exit 355 111th St.,W 110th St,Chicago,Cook,IL,60643-3620,US,US/Central,KMDW,2022-09-06 07:53:00,73.0,73.0,76.0,29.45,10.0,E,6.0,0.0,Cloudy,False,False,False,False,False,False,False,False,False,False,False,False,False,Day,Day,Day,Day
A-515537,Source2,1,2022-09-06 07:47:41+00:00,2022-09-06 08:33:05+00:00,41.93515,-87.717331,,,0.0,Crash on Milwaukee Ave at Central Park Ave.,N Central Park Ave,Chicago,Cook,IL,60618-7284,US,US/Central,KORD,2022-09-06 07:51:00,68.0,68.0,87.0,29.4,10.0,N,5.0,0.0,Cloudy,True,False,True,False,False,False,False,False,False,False,False,True,False,Day,Day,Day,Day
A-515657,Source2,3,2022-09-06 06:49:54+00:00,2022-09-06 07:34:36+00:00,41.837051,-87.67531600000002,,,0.0,Lane blocked due to crash on I-55 Stevenson Expy Northbound at Exit 290 Damen Ave.,Stevenson Expy N,Chicago,Cook,IL,60608,US,US/Central,KMDW,2022-09-06 06:53:00,71.0,71.0,78.0,29.45,9.0,NE,3.0,0.0,Cloudy,False,False,True,False,False,False,False,False,False,False,False,True,False,Day,Day,Day,Day
A-515756,Source2,1,2022-09-06 07:03:20+00:00,2022-09-06 07:33:12+00:00,41.90781,-87.63157700000002,,,0.0,Crash on Schiller St at Clark St.,W Schiller St,Chicago,Cook,IL,60610-2009,US,US/Central,KMDW,2022-09-06 06:53:00,71.0,71.0,78.0,29.45,9.0,NE,3.0,0.0,Cloudy,True,False,True,False,False,False,False,False,True,False,False,True,False,Day,Day,Day,Day
A-515874,Source2,3,2022-09-06 06:49:12+00:00,2022-09-06 07:18:47+00:00,41.830818,-87.69976,,,0.0,Lane blocked due to crash on I-55 Stevenson Expy Northbound at Exit 288 California Ave.,Stevenson Expy S,Chicago,Cook,IL,60623,US,US/Central,KMDW,2022-09-06 06:53:00,71.0,71.0,78.0,29.45,9.0,NE,3.0,0.0,Cloudy,False,False,False,False,False,False,False,False,False,False,False,False,False,Day,Day,Day,Day
A-515894,Source2,3,2022-09-06 06:06:36+00:00,2022-09-06 07:06:33+00:00,41.688717,-87.599983,,,0.0,Lane blocked due to crash on I-94 Bishop Ford Fwy Westbound at Exit 66 111th St.,Bishop Ford Fwy W,Chicago,Cook,IL,60628,US,US/Central,KMDW,2022-09-06 05:53:00,71.0,71.0,78.0,29.42,10.0,N,3.0,0.0,Cloudy,False,False,False,False,False,False,False,False,False,False,False,False,False,Night,Day,Day,Day
A-515947,Source2,3,2022-09-06 05:45:09+00:00,2022-09-06 06:29:59+00:00,41.875839,-87.676567,,,0.0,Three lanes blocked due to crash on I-290 Eisenhower Expy Westbound at Exit 28 Damen Ave.,Eisenhower Expy,Chicago,Cook,IL,60612,US,US/Central,KMDW,2022-09-06 05:53:00,71.0,71.0,78.0,29.42,10.0,N,3.0,0.0,Cloudy,False,False,False,False,False,False,False,False,True,False,False,False,False,Night,Night,Day,Day
A-516612,Source2,3,2022-09-05 08:06:27+00:00,2022-09-05 08:36:12+00:00,41.871063,-87.77377299999998,,,0.0,Lane blocked due to crash on I-290 Eisenhower Expy Eastbound at Exit 23A Austin Blvd.,23A,Chicago,Cook,IL,60644,US,US/Central,KMDW,2022-09-05 07:53:00,70.0,70.0,76.0,29.41,10.0,NNE,10.0,0.0,Cloudy,False,False,False,False,False,False,False,False,False,False,False,False,False,Day,Day,Day,Day
A-516622,Source2,3,2022-09-05 07:09:45+00:00,2022-09-05 07:54:31+00:00,41.710411,-87.590187,,,0.0,Lane blocked due to crash on I-94 Bishop Ford Fwy Eastbound at Exit 65 103rd St.,S Woodlawn Ave,Chicago,Cook,IL,60628-1645,US,US/Central,KMDW,2022-09-05 06:53:00,69.0,69.0,78.0,29.4,10.0,NNE,13.0,0.0,Cloudy,False,False,False,False,False,False,False,False,False,False,False,False,False,Day,Day,Day,Day
A-516674,Source2,3,2022-09-05 07:32:06+00:00,2022-09-05 08:34:35+00:00,41.714443,-87.642914,,,0.0,Lane blocked due to crash on I-57 Southbound at Exit 357 IL-1 Halsted St.,S Halsted St,Chicago,Cook,IL,60628,US,US/Central,KMDW,2022-09-05 07:53:00,70.0,70.0,76.0,29.41,10.0,NNE,10.0,0.0,Cloudy,False,False,True,False,False,False,False,False,True,False,False,True,False,Day,Day,Day,Day
A-516777,Source2,1,2022-09-05 06:46:08+00:00,2022-09-05 07:47:22+00:00,41.997391,-87.70931999999998,,,0.0,Crash on Kedzie Ave at Devon Ave.,W Devon Ave,Chicago,Cook,IL,60659-1424,US,US/Central,KORD,2022-09-05 06:51:00,67.0,67.0,84.0,29.35,10.0,NE,12.0,0.0,Cloudy,False,False,True,False,False,False,False,False,True,False,False,True,False,Day,Day,Day,Day
A-516862,Source2,1,2022-09-05 05:03:43+00:00,2022-09-05 06:04:21+00:00,41.894939,-87.624237,,,0.0,Crash on Michigan Ave near Huron St.,N Michigan Ave,Chicago,Cook,IL,60611-2501,US,US/Central,KMDW,2022-09-05 04:53:00,70.0,70.0,78.0,29.38,10.0,NNE,10.0,0.0,Cloudy,False,False,True,False,False,False,False,False,True,False,False,True,False,Night,Night,Night,Day
A-516902,Source2,1,2022-09-05 04:48:02+00:00,2022-09-05 05:48:29+00:00,41.909801,-87.653122,,,0.0,Crash on Sheffield Ave at Kingsbury St.,N Kingsbury St,Chicago,Cook,IL,60642-2533,US,US/Central,KMDW,2022-09-05 04:53:00,70.0,70.0,78.0,29.38,10.0,NNE,10.0,0.0,Cloudy,False,False,True,False,False,False,False,False,False,False,False,True,False,Night,Night,Night,Day
A-516928,Source2,3,2022-09-05 04:20:05+00:00,2022-09-05 04:49:33+00:00,41.8162,-87.630112,,,0.0,Lane blocked due to crash on I-90 Dan Ryan Expy Westbound at Exit 56 43rd St.,I-90 Express Lane,Chicago,Cook,IL,60609,US,US/Central,KMDW,2022-09-05 03:53:00,70.0,70.0,81.0,29.38,10.0,NE,9.0,0.01,Cloudy,False,False,False,False,False,False,False,False,False,False,False,False,False,Night,Night,Night,Night
A-517138,Source2,3,2022-09-04 09:34:11+00:00,2022-09-04 10:18:16+00:00,41.923588,-87.68001600000002,,,0.0,Lane blocked due to crash on I-90 Kennedy Expy Westbound at Exit 47A Fullerton Ave.,Kennedy Expy W,Chicago,Cook,IL,60647,US,US/Central,KMDW,2022-09-04 09:48:00,73.0,73.0,83.0,29.44,7.0,NE,9.0,0.13,Rain,False,False,False,False,False,False,False,False,False,False,False,False,False,Day,Day,Day,Day
A-517871,Source2,3,2022-09-02 04:24:51+00:00,2022-09-02 05:09:56+00:00,41.757931,-87.625809,,,0.0,Lane blocked due to crash on I-94 Dan Ryan Expy Eastbound at Exit 60 75th St.,Dan Ryan Expy E,Chicago,Cook,IL,60620,US,US/Central,KMDW,2022-09-02 04:53:00,74.0,74.0,71.0,29.36,10.0,S,6.0,0.0,Mostly Cloudy,False,False,False,False,False,False,False,False,False,False,False,False,False,Night,Night,Night,Night
A-518012,Source2,2,2022-09-02 16:05:40+00:00,2022-09-02 16:34:42+00:00,41.904812,-88.150581,,,0.0,Lane blocked due to crash on CR-7 St Charles Rd at CR-43 County Farm Rd.,27W203 Saint Charles Rd,West Chicago,DuPage,IL,60185,US,US/Central,KDPA,2022-09-02 15:52:00,81.0,81.0,56.0,29.21,10.0,S,16.0,0.0,Fair,False,False,False,False,False,False,False,False,False,False,False,True,False,Day,Day,Day,Day
A-518347,Source2,3,2022-09-02 08:58:28+00:00,2022-09-02 09:48:43+00:00,41.78759,-87.631454,,,0.0,Lane blocked due to crash on I-90 Dan Ryan Expy Westbound at Exit 58 59th St.,I-94 Express Lane,Chicago,Cook,IL,60621,US,US/Central,KMDW,2022-09-02 08:53:00,78.0,78.0,62.0,29.39,10.0,VAR,7.0,0.0,Mostly Cloudy,False,False,False,False,False,False,False,False,False,False,False,False,False,Day,Day,Day,Day
A-518348,Source2,3,2022-09-02 07:46:01+00:00,2022-09-02 08:15:43+00:00,41.976749,-87.746803,,,0.0,Lane blocked due to crash on I-94 Edens Expy Westbound at Exit 42 Foster Ave.,,Chicago,Cook,IL,60630,US,US/Central,KORD,2022-09-02 07:51:00,73.0,73.0,73.0,29.32,10.0,S,7.0,0.0,Mostly Cloudy,False,False,False,False,False,False,False,False,False,False,False,False,False,Day,Day,Day,Day
A-518481,Source2,3,2022-09-02 07:49:14+00:00,2022-09-02 08:18:20+00:00,41.990318,-87.751091,,,0.0,Lane blocked due to crash on I-94 Edens Expy Westbound at Exit 41 US-14 Peterson Ave.,Edens Expy W,Chicago,Cook,IL,60646,US,US/Central,KORD,2022-09-02 07:51:00,73.0,73.0,73.0,29.32,10.0,S,7.0,0.0,Mostly Cloudy,False,False,False,False,True,False,False,False,False,False,False,False,False,Day,Day,Day,Day
A-518492,Source2,3,2022-09-02 07:41:33+00:00,2022-09-02 08:11:10+00:00,41.85218,-87.64518699999998,,,0.0,Lane blocked due to crash on I-90 Dan Ryan Express Lane Westbound at Exit 53 Chinatown Feeder.,Dan Ryan Expy W,Chicago,Cook,IL,60616,US,US/Central,KMDW,2022-09-02 07:53:00,75.0,75.0,69.0,29.39,10.0,S,5.0,0.0,Mostly Cloudy,False,False,False,False,False,False,False,False,False,False,False,False,False,Day,Day,Day,Day
A-518505,Source2,1,2022-09-02 08:31:41+00:00,2022-09-02 09:17:04+00:00,41.975891,-87.689148,,,0.0,Crash on Western Ave near US-41 Foster Ave.,W Foster Ave,Chicago,Cook,IL,60625,US,US/Central,KORD,2022-09-02 08:51:00,76.0,76.0,67.0,29.33,10.0,S,6.0,0.0,Mostly Cloudy,False,False,True,False,False,False,False,False,True,False,False,True,False,Day,Day,Day,Day
A-518542,Source2,3,2022-09-02 07:13:24+00:00,2022-09-02 07:42:27+00:00,41.871059,-87.764015,,,0.0,Lane blocked due to crash on I-290 Eisenhower Expy Eastbound at Exit 23B Central Ave.,Chicago-Kansas City Expressway E,Chicago,Cook,IL,60644,US,US/Central,KMDW,2022-09-02 06:53:00,73.0,73.0,71.0,29.39,10.0,SSW,7.0,0.0,Mostly Cloudy,False,False,False,False,False,False,False,False,False,False,False,False,False,Day,Day,Day,Day
A-518633,Source2,3,2022-09-02 07:22:15+00:00,2022-09-02 07:51:58+00:00,41.910511,-87.66489399999998,,,0.0,Lane blocked due to crash on I-90 Kennedy Expy Eastbound at Exit 48B IL-64.,I-90 Express Lane,Chicago,Cook,IL,60642,US,US/Central,KMDW,2022-09-02 06:53:00,73.0,73.0,71.0,29.39,10.0,SSW,7.0,0.0,Mostly Cloudy,False,False,False,False,False,False,False,False,False,False,False,False,False,Day,Day,Day,Day
A-518645,Source2,3,2022-09-02 07:12:06+00:00,2022-09-02 07:41:51+00:00,41.91813300000001,-87.670975,,,0.0,Lane blocked due to crash on I-90 Kennedy Expy Eastbound at Exit 48A Armitage Ave.,I-90 E,Chicago,Cook,IL,60614,US,US/Central,KMDW,2022-09-02 06:53:00,73.0,73.0,71.0,29.39,10.0,SSW,7.0,0.0,Mostly Cloudy,False,False,False,False,False,False,False,False,False,False,False,False,False,Day,Day,Day,Day
A-518779,Source2,3,2022-09-02 07:16:59+00:00,2022-09-02 07:46:29+00:00,41.768452,-87.62561,,,0.0,Lane blocked due to crash on I-94 Dan Ryan Expy Westbound at Exit 59 69th St.,Dan Ryan Expy W,Chicago,Cook,IL,60621,US,US/Central,KMDW,2022-09-02 06:53:00,73.0,73.0,71.0,29.39,10.0,SSW,7.0,0.0,Mostly Cloudy,False,False,False,False,False,False,True,False,True,False,False,False,False,Day,Day,Day,Day
A-518844,Source2,1,2022-09-02 05:25:23+00:00,2022-09-02 06:26:38+00:00,41.791401,-87.723099,,,0.0,Crash on 56th St at Pulaski Rd.,S Pulaski Rd,Chicago,Cook,IL,60629-4418,US,US/Central,KMDW,2022-09-02 05:53:00,72.0,72.0,73.0,29.38,10.0,WSW,5.0,0.0,Mostly Cloudy,False,False,True,False,False,False,False,False,True,False,False,False,False,Night,Night,Day,Day
A-518876,Source2,3,2022-09-02 05:03:32+00:00,2022-09-02 05:33:11+00:00,41.823238,-87.723907,,,0.0,Lane blocked due to crash on I-55 Stevenson Expy Northbound at Exit 287 Pulaski Rd.,S Pulaski Rd,Chicago,Cook,IL,60632,US,US/Central,KMDW,2022-09-02 04:53:00,74.0,74.0,71.0,29.36,10.0,S,6.0,0.0,Mostly Cloudy,False,False,False,False,False,False,False,False,False,False,False,True,False,Night,Night,Night,Day
A-518941,Source2,1,2022-09-01 05:09:53+00:00,2022-09-01 06:08:20+00:00,41.750961,-87.625839,,,0.0,Crash on I-94 Eastbound at 79th St.,W 79th St,Chicago,Cook,IL,60620-1124,US,US/Central,KMDW,2022-09-01 04:53:00,70.0,70.0,76.0,29.35,10.0,W,3.0,0.0,Fair,False,False,True,False,False,False,False,False,False,False,False,True,False,Night,Night,Night,Day
A-519226,Source3,2,2022-09-01 15:47:50+00:00,2022-09-01 16:28:40+00:00,41.921951,-88.20877800000002,,,0.0,Lane blocked due to crash on IL-59 at Diversey Pkwy.,3N387 S Il Route 59,West Chicago,DuPage,IL,60185,US,US/Central,KDPA,2022-09-01 15:52:00,84.0,84.0,53.0,29.21,10.0,SW,12.0,0.0,Fair,False,False,False,False,False,False,False,False,False,False,False,True,False,Day,Day,Day,Day
A-519318,Source2,2,2022-09-01 15:48:16+00:00,2022-09-01 16:28:43+00:00,41.884621,-88.20491,,,0.0,Lane blocked due to crash on Main St at Washington St.,W Washington St,West Chicago,DuPage,IL,60185-2803,US,US/Central,KDPA,2022-09-01 15:52:00,84.0,84.0,53.0,29.21,10.0,SW,12.0,0.0,Fair,True,False,False,False,False,False,False,False,False,False,False,True,False,Day,Day,Day,Day
A-519745,Source2,3,2022-09-01 08:12:18+00:00,2022-09-01 08:41:30+00:00,41.823238,-87.723907,,,0.0,Lane blocked due to crash on I-55 Stevenson Expy Southbound at Exit 287 Pulaski Rd.,S Pulaski Rd,Chicago,Cook,IL,60632,US,US/Central,KMDW,2022-09-01 07:53:00,73.0,73.0,68.0,29.38,10.0,W,3.0,0.0,Fair,False,False,False,False,False,False,False,False,False,False,False,True,False,Day,Day,Day,Day
A-519757,Source2,3,2022-09-01 07:37:42+00:00,2022-09-01 08:05:53+00:00,41.964085,-87.745956,,,0.0,Lane blocked due to crash on I-94 Edens Expy Westbound near Exit 43A Wilson Ave.,Edens Expy N,Chicago,Cook,IL,60630,US,US/Central,KORD,2022-09-01 07:51:00,71.0,71.0,70.0,29.32,10.0,CALM,0.0,0.0,Fair,False,False,False,False,False,False,False,False,False,False,False,False,False,Day,Day,Day,Day
A-519797,Source2,3,2022-09-01 07:28:55+00:00,2022-09-01 08:13:22+00:00,41.946358,-87.718597,,,0.0,Lane blocked due to crash on I-90 Kennedy Expy Eastbound at Exit 45A Addison St.,Kennedy Expy E,Chicago,Cook,IL,60618,US,US/Central,KORD,2022-09-01 07:51:00,71.0,71.0,70.0,29.32,10.0,CALM,0.0,0.0,Fair,False,False,False,False,False,False,False,False,True,False,False,False,False,Day,Day,Day,Day
A-520292,Source2,3,2022-08-31 05:39:02+00:00,2022-08-31 06:53:21+00:00,41.930885,-87.693359,,,0.0,Lane blocked due to crash on I-90 Kennedy Expy Eastbound at Exit 46B Diversey Ave.,I-90 Express Lane,Chicago,Cook,IL,60647,US,US/Central,KMDW,2022-08-31 05:53:00,64.0,64.0,67.0,29.36,10.0,W,7.0,0.0,Fair,False,False,False,False,False,False,False,False,False,False,False,False,False,Night,Night,Day,Day
A-520759,Source2,2,2022-08-31 03:34:08+00:00,2022-08-31 04:02:34+00:00,41.78030800000001,-87.630775,,,0.0,Crash on I-90 Express Lane Westbound at Exit 58A 63rd St.,I-94 Express Lane,Chicago,Cook,IL,60621,US,US/Central,KMDW,2022-08-31 03:53:00,65.0,65.0,68.0,29.35,10.0,W,6.0,0.0,Fair,False,False,False,False,False,False,True,False,True,False,False,False,False,Night,Night,Night,Night
A-520760,Source2,2,2022-08-31 03:48:03+00:00,2022-08-31 04:16:48+00:00,41.896828,-87.658447,,,0.0,Crash on I-90 Kennedy Expy Westbound at Exit 49B Chicago Ave.,Kennedy Expy W,Chicago,Cook,IL,60642,US,US/Central,KMDW,2022-08-31 03:53:00,65.0,65.0,68.0,29.35,10.0,W,6.0,0.0,Fair,False,False,False,False,False,False,False,False,False,False,False,False,False,Night,Night,Night,Night
A-520761,Source2,2,2022-08-31 03:46:18+00:00,2022-08-31 04:14:48+00:00,41.675915,-87.661728,,,0.0,Crash on I-57 Northbound at Exit 354 119th St.,I-57,Chicago,Cook,IL,60643,US,US/Central,KMDW,2022-08-31 03:53:00,65.0,65.0,68.0,29.35,10.0,W,6.0,0.0,Fair,False,False,False,False,False,False,False,False,False,False,False,False,False,Night,Night,Night,Night
A-520793,Source2,3,2022-08-31 05:37:27+00:00,2022-08-31 06:07:00+00:00,41.67870300000001,-87.661713,,,0.0,Lane blocked due to crash on I-57 Northbound at Exit 354 119th St.,I-57,Chicago,Cook,IL,60643,US,US/Central,KMDW,2022-08-31 05:53:00,64.0,64.0,67.0,29.36,10.0,W,7.0,0.0,Fair,False,False,False,False,False,False,False,False,False,False,False,False,False,Night,Night,Day,Day
A-520794,Source2,3,2022-08-31 05:38:01+00:00,2022-08-31 06:07:39+00:00,41.91813300000001,-87.670975,,,0.0,Two lanes blocked due to crash on I-90 Kennedy Expy Eastbound at Exit 48A Armitage Ave.,I-90 E,Chicago,Cook,IL,60614,US,US/Central,KMDW,2022-08-31 05:53:00,64.0,64.0,67.0,29.36,10.0,W,7.0,0.0,Fair,False,False,False,False,False,False,False,False,False,False,False,False,False,Night,Night,Day,Day
A-520795,Source2,3,2022-08-31 14:57:55+00:00,2022-08-31 15:42:21+00:00,41.954742,-87.73266600000002,,,0.0,Lane blocked due to crash on I-90 Kennedy Expy Westbound at Exit 44A IL-19 Irving Park Rd.,I-90 Express Lane,Chicago,Cook,IL,60641,US,US/Central,KORD,2022-08-31 14:51:00,84.0,84.0,41.0,29.27,10.0,WNW,14.0,0.0,Fair,False,False,False,False,False,False,False,False,False,False,False,False,False,Day,Day,Day,Day
A-521106,Source2,3,2022-08-31 07:54:01+00:00,2022-08-31 08:23:21+00:00,41.694263,-87.659653,,,0.0,Lane blocked due to crash on I-57 Northbound at Exit 355 111th St.,W 110th St,Chicago,Cook,IL,60643-3620,US,US/Central,KMDW,2022-08-31 07:53:00,69.0,69.0,58.0,29.37,10.0,W,7.0,0.0,Fair,False,False,False,False,False,False,False,False,False,False,False,False,False,Day,Day,Day,Day
A-521108,Source2,3,2022-08-31 08:12:21+00:00,2022-08-31 08:41:44+00:00,41.874218,-87.720261,,,0.0,Lane blocked due to crash on I-290 Eisenhower Expy Eastbound at Exit 26A Hamlin blvd.,S Independence Blvd,Chicago,Cook,IL,60624,US,US/Central,KMDW,2022-08-31 07:53:00,69.0,69.0,58.0,29.37,10.0,W,7.0,0.0,Fair,False,False,False,False,False,False,False,False,False,False,False,True,False,Day,Day,Day,Day
A-521109,Source2,3,2022-08-31 06:08:49+00:00,2022-08-31 06:37:56+00:00,41.880512,-87.645821,,,0.0,Lane blocked due to crash on I-64 Eastbound at Exit 51F-G Adams St .,W Monroe St,Chicago,Cook,IL,60661,US,US/Central,KMDW,2022-08-31 05:53:00,64.0,64.0,67.0,29.36,10.0,W,7.0,0.0,Fair,False,False,False,False,False,False,False,False,False,False,False,False,False,Night,Day,Day,Day
A-521348,Source2,3,2022-08-31 08:11:21+00:00,2022-08-31 08:40:25+00:00,41.940514,-87.71075400000002,,,0.0,Lane blocked due to crash on I-90 Kennedy Expy Westbound before Exits 45B Avondale Ave .,Kennedy Expy E,Chicago,Cook,IL,60618,US,US/Central,KORD,2022-08-31 07:51:00,66.0,66.0,68.0,29.31,10.0,W,8.0,0.0,Fair,False,False,False,False,False,False,False,False,False,False,False,True,False,Day,Day,Day,Day
A-521369,Source3,1,2022-08-31 06:45:45+00:00,2022-08-31 07:15:15+00:00,42.334221,-87.871651,,,0.0,Crash on CR-A29 C Pulaski Dr Westbound at IL-131 Green Bay Rd.,Casimir Pulaski Dr,North Chicago,Lake,IL,60064,US,US/Central,KUGN,2022-08-31 06:55:00,61.0,61.0,78.0,29.24,10.0,VAR,3.0,0.0,Fair,False,False,False,False,False,False,False,False,False,False,False,True,False,Day,Day,Day,Day
A-521424,Source2,3,2022-08-31 06:08:49+00:00,2022-08-31 07:11:07+00:00,41.880512,-87.645821,,,0.0,Lane blocked due to crash on I-90 Eastbound after Exit 51F-G Adams St .,W Monroe St,Chicago,Cook,IL,60661,US,US/Central,KMDW,2022-08-31 05:53:00,64.0,64.0,67.0,29.36,10.0,W,7.0,0.0,Fair,False,False,False,False,False,False,False,False,False,False,False,False,False,Night,Day,Day,Day
A-521425,Source2,3,2022-08-31 06:38:46+00:00,2022-08-31 07:37:44+00:00,41.875549,-87.641052,,,0.0,Lane blocked due to crash on I-290 Eisenhower Expy Eastbound at Exit 29b I-90.,S Clinton St,Chicago,Cook,IL,60607,US,US/Central,KMDW,2022-08-31 06:53:00,65.0,65.0,68.0,29.37,10.0,W,7.0,0.0,Fair,False,False,True,False,False,False,True,False,True,False,False,False,False,Day,Day,Day,Day
A-521426,Source2,3,2022-08-31 06:08:49+00:00,2022-08-31 07:11:07+00:00,41.880512,-87.645821,,,0.0,Lane blocked due to crash on I-90 Kennedy Expy Eastbound before Exit 51F-G Adams St .,W Monroe St,Chicago,Cook,IL,60661,US,US/Central,KMDW,2022-08-31 05:53:00,64.0,64.0,67.0,29.36,10.0,W,7.0,0.0,Fair,False,False,False,False,False,False,False,False,False,False,False,False,False,Night,Day,Day,Day
A-522072,Source2,3,2022-08-30 14:52:47+00:00,2022-08-30 15:22:13+00:00,41.964085,-87.745956,,,0.0,Lane closed due to crash on I-94 Edens Expy Westbound at Exit 43A Wilson Ave.,Edens Expy N,Chicago,Cook,IL,60630,US,US/Central,KORD,2022-08-30 14:51:00,79.0,79.0,39.0,29.21,10.0,WNW,13.0,0.0,Fair,False,False,False,False,False,False,False,False,False,False,False,False,False,Day,Day,Day,Day
A-522301,Source2,3,2022-08-30 08:52:09+00:00,2022-08-30 09:21:46+00:00,41.871063,-87.77377299999998,,,0.0,Lane blocked due to crash on I-290 Eisenhower Expy Westbound at Exit 23A Austin Blvd.,23A,Chicago,Cook,IL,60644,US,US/Central,KMDW,2022-08-30 08:53:00,74.0,74.0,55.0,29.27,10.0,WNW,14.0,0.0,Fair,False,False,False,False,False,False,False,False,False,False,False,False,False,Day,Day,Day,Day
A-522326,Source2,3,2022-08-30 08:16:28+00:00,2022-08-30 09:01:27+00:00,41.82935,-87.704735,,,0.0,Lane blocked due to crash on I-55 Stevenson Expy Southbound at Exit 289 Kedzie Ave.,Stevenson Expy S,Chicago,Cook,IL,60623,US,US/Central,KMDW,2022-08-30 07:53:00,72.0,72.0,59.0,29.27,10.0,WNW,12.0,0.0,Fair,False,False,False,False,False,False,False,False,False,False,False,False,False,Day,Day,Day,Day
A-522327,Source2,3,2022-08-30 08:03:06+00:00,2022-08-30 08:48:08+00:00,41.830818,-87.69976,,,0.0,Lane blocked due to crash on I-55 Stevenson Expy Southbound at Exit 289 California Ave.,Stevenson Expy S,Chicago,Cook,IL,60623,US,US/Central,KMDW,2022-08-30 07:53:00,72.0,72.0,59.0,29.27,10.0,WNW,12.0,0.0,Fair,False,False,False,False,False,False,False,False,False,False,False,False,False,Day,Day,Day,Day
A-522346,Source2,3,2022-08-30 09:29:41+00:00,2022-08-30 10:00:00+00:00,41.81102,-87.762878,,,0.0,Crash on I-55 Stevenson Expy Southbound at Exit 285 Central Ave.,Adlai E Stevenson Expy S,Chicago,Cook,IL,60638,US,US/Central,KMDW,2022-08-30 09:53:00,77.0,77.0,50.0,29.28,10.0,WNW,12.0,0.0,Fair,False,False,False,False,False,False,False,False,False,False,False,True,False,Day,Day,Day,Day
A-522390,Source2,3,2022-08-30 08:51:19+00:00,2022-08-30 09:20:53+00:00,41.809544,-87.63134000000002,,,0.0,Lane blocked due to crash on I-90 Dan Ryan Express Lane Westbound at Exit 56 47th St.,I-90 Express Lane,Chicago,Cook,IL,60609,US,US/Central,KMDW,2022-08-30 08:53:00,74.0,74.0,55.0,29.27,10.0,WNW,14.0,0.0,Fair,False,False,False,False,False,False,False,False,False,False,False,False,False,Day,Day,Day,Day
A-522501,Source2,3,2022-08-30 07:31:17+00:00,2022-08-30 08:16:06+00:00,41.714844,-87.64335600000004,,,0.0,Lane blocked due to crash on I-57 Southbound at I-57 Exit 357 IL-1 Halsted St.,I-57,Chicago,Cook,IL,60643,US,US/Central,KMDW,2022-08-30 07:53:00,72.0,72.0,59.0,29.27,10.0,WNW,12.0,0.0,Fair,False,False,False,False,False,False,False,False,False,False,False,False,False,Day,Day,Day,Day
A-522506,Source2,1,2022-08-30 07:23:54+00:00,2022-08-30 07:53:46+00:00,41.801071,-87.689133,,,0.0,Crash on 51st St at Rockwell St.,W 51st St,Chicago,Cook,IL,60632-1542,US,US/Central,KMDW,2022-08-30 06:53:00,69.0,69.0,73.0,29.25,10.0,W,8.0,0.0,Fair,False,False,True,False,False,False,False,False,True,False,False,True,False,Day,Day,Day,Day
A-522507,Source2,1,2022-08-30 08:10:36+00:00,2022-08-30 08:55:46+00:00,41.90353,-87.65412099999998,,,0.0,Crash truck involved on Division St at Cherry Ave.,W Division St,Chicago,Cook,IL,60642-4215,US,US/Central,KMDW,2022-08-30 07:53:00,72.0,72.0,59.0,29.27,10.0,WNW,12.0,0.0,Fair,False,False,True,False,False,False,True,False,True,False,False,False,False,Day,Day,Day,Day
A-522576,Source2,1,2022-08-30 07:10:39+00:00,2022-08-30 07:56:12+00:00,41.735802,-87.663063,,,0.0,Crash on Ashland Ave at 87th St.,S Ashland Ave,Chicago,Cook,IL,60620,US,US/Central,KMDW,2022-08-30 06:53:00,69.0,69.0,73.0,29.25,10.0,W,8.0,0.0,Fair,False,False,True,False,False,False,False,False,True,False,False,True,False,Day,Day,Day,Day
A-522802,Source2,3,2022-08-30 05:57:35+00:00,2022-08-30 06:43:14+00:00,41.809422,-87.631393,,,0.0,Lane blocked due to crash on I-90 Dan Ryan Express Lane Westbound at Exit 56 47th St.,I-90 Express Lane,Chicago,Cook,IL,60609,US,US/Central,KMDW,2022-08-30 05:53:00,69.0,69.0,73.0,29.25,10.0,WSW,8.0,0.0,Fair,False,False,False,False,False,False,False,False,True,False,False,False,False,Night,Day,Day,Day
A-522991,Source2,3,2022-08-30 04:55:02+00:00,2022-08-30 05:24:47+00:00,41.823238,-87.723907,,,0.0,Lane blocked due to crash on I-55 Stevenson Expy Northbound at Exit 287 Pulaski Rd.,S Pulaski Rd,Chicago,Cook,IL,60632,US,US/Central,KMDW,2022-08-30 04:53:00,70.0,70.0,76.0,29.24,10.0,WSW,10.0,0.0,Fair,False,False,False,False,False,False,False,False,False,False,False,True,False,Night,Night,Night,Day
A-523035,Source2,3,2022-08-30 04:44:05+00:00,2022-08-30 05:13:40+00:00,41.817348,-87.74282099999998,,,0.0,Lane blocked due to crash on I-55 Stevenson Expy Northbound at Exit 286 IL-50 Cicero Ave.,Adlai E Stevenson Expy N,Chicago,Cook,IL,60632,US,US/Central,KMDW,2022-08-30 04:53:00,70.0,70.0,76.0,29.24,10.0,WSW,10.0,0.0,Fair,False,False,False,False,False,False,False,False,False,False,False,False,False,Night,Night,Night,Day
A-523598,Source2,3,2022-08-29 07:55:45+00:00,2022-08-29 08:25:20+00:00,41.688717,-87.599983,,,0.0,Lane blocked due to crash on I-94 Bishop Ford Fwy Eastbound at Exit 66 111th St.,Bishop Ford Fwy W,Chicago,Cook,IL,60628,US,US/Central,KMDW,2022-08-29 07:53:00,78.0,78.0,76.0,29.17,10.0,SSW,13.0,0.0,Partly Cloudy,False,False,False,False,False,False,False,False,False,False,False,False,False,Day,Day,Day,Day
A-523600,Source2,3,2022-08-29 07:43:17+00:00,2022-08-29 08:27:55+00:00,41.967754,-87.75544000000002,,,0.0,Lane blocked due to crash on I-90 Kennedy Expy Westbound at Exit 84 Lawrence Ave.,W Lawrence Ave,Chicago,Cook,IL,60630-3823,US,US/Central,KORD,2022-08-29 07:51:00,75.0,75.0,84.0,29.1,10.0,SSW,12.0,0.0,Partly Cloudy,False,False,False,False,False,False,False,False,False,False,False,False,False,Day,Day,Day,Day
A-523722,Source2,3,2022-08-29 08:23:54+00:00,2022-08-29 08:53:18+00:00,41.830818,-87.69976,,,2.1199998855590816,Lane blocked due to crash on I-55 Stevenson Expy Southbound between Exit 290 Damen Ave and Exit 288 California Ave.,Stevenson Expy S,Chicago,Cook,IL,60623,US,US/Central,KMDW,2022-08-29 07:53:00,78.0,78.0,76.0,29.17,10.0,SSW,13.0,0.0,Partly Cloudy,False,False,False,False,False,False,False,False,False,False,False,False,False,Day,Day,Day,Day
A-523772,Source2,1,2022-08-29 08:49:01+00:00,2022-08-29 09:18:49+00:00,41.867222,-87.642189,,,0.0,Crash on Roosevelt Rd at Jefferson St.,W Roosevelt Rd,Chicago,Cook,IL,60607-4916,US,US/Central,KMDW,2022-08-29 08:53:00,81.0,81.0,72.0,29.18,10.0,SW,13.0,0.0,Partly Cloudy,False,False,True,False,False,False,False,False,True,False,False,True,False,Day,Day,Day,Day
A-523808,Source2,3,2022-08-29 07:37:42+00:00,2022-08-29 08:07:15+00:00,41.769379,-87.626038,,,0.0,Lane blocked due to crash on I-94 Dan Ryan Express Lane Westbound at Exit 59 69th St.,W 69th St,Chicago,Cook,IL,60621,US,US/Central,KMDW,2022-08-29 07:53:00,78.0,78.0,76.0,29.17,10.0,SSW,13.0,0.0,Partly Cloudy,False,False,False,False,False,False,False,False,False,False,False,False,False,Day,Day,Day,Day
A-523837,Source2,3,2022-08-29 08:12:20+00:00,2022-08-29 09:06:46+00:00,41.648651,-87.57940699999996,,,2.8399999141693115,Lane blocked due to crash on I-94 Bishop Ford Fwy Westbound between Exit 71B IL-83 Sibley Blvd and Exit 69 Doty Ave.,Bishop Ford Fwy W,Chicago,Cook,IL,60633,US,US/Central,KGYY,2022-08-29 07:45:00,75.0,75.0,89.0,29.23,10.0,S,8.0,0.0,Partly Cloudy,False,False,False,False,False,False,False,False,False,False,False,False,False,Day,Day,Day,Day
A-523864,Source2,2,2022-08-29 07:49:12+00:00,2022-08-29 08:34:02+00:00,41.911877,-87.62602199999998,,,0.0,Left lane blocked due to crash on US-41 Jean Baptiste Pointe Dusable Lk Shr Dr Southbound before North Ave.,N DuSable Lake Shore Dr,Chicago,Cook,IL,60614,US,US/Central,KMDW,2022-08-29 07:53:00,78.0,78.0,76.0,29.17,10.0,SSW,13.0,0.0,Partly Cloudy,False,False,False,False,False,False,False,False,False,False,False,False,False,Day,Day,Day,Day
A-523987,Source2,3,2022-08-29 07:20:16+00:00,2022-08-29 08:04:53+00:00,41.824356,-87.63054699999998,,,0.0,Lane blocked due to crash on I-90 Dan Ryan Expy Westbound at Exit 55 Pershing Rd.,I-94 Express Lane,Chicago,Cook,IL,60609,US,US/Central,KMDW,2022-08-29 06:53:00,75.0,75.0,82.0,29.18,10.0,SW,9.0,0.0,Partly Cloudy,False,False,False,False,False,False,False,False,False,False,False,False,False,Day,Day,Day,Day
A-523988,Source2,3,2022-08-29 07:19:14+00:00,2022-08-29 08:04:31+00:00,41.845848,-87.636246,,,0.0,Lane blocked due to crash on I-90 Dan Ryan Express Lane Westbound at Exit 54 26th St.,Dan Ryan Expy W,Chicago,Cook,IL,60616,US,US/Central,KMDW,2022-08-29 06:53:00,75.0,75.0,82.0,29.18,10.0,SW,9.0,0.0,Partly Cloudy,False,False,True,False,False,False,False,False,False,False,False,False,False,Day,Day,Day,Day
A-524002,Source2,3,2022-08-29 08:05:27+00:00,2022-08-29 08:35:02+00:00,41.736485,-87.624557,,,0.0,Lane blocked due to crash on I-94 Dan Ryan Expy Westbound at Exit 61 87th St.,Dan Ryan Expy N,Chicago,Cook,IL,60620,US,US/Central,KMDW,2022-08-29 07:53:00,78.0,78.0,76.0,29.17,10.0,SSW,13.0,0.0,Partly Cloudy,False,False,False,False,False,False,True,False,True,False,False,False,False,Day,Day,Day,Day
A-524005,Source2,3,2022-08-29 06:36:34+00:00,2022-08-29 07:22:07+00:00,41.963955,-87.74623100000002,,,0.0,Lane blocked due to crash on I-90 Kennedy Expy Westbound at Exit 43 I-94 Edens Expy.,Edens Expy W,Chicago,Cook,IL,60630,US,US/Central,KORD,2022-08-29 06:51:00,73.0,73.0,87.0,29.09,10.0,SSW,9.0,0.0,Fair,False,False,False,False,False,False,False,False,False,False,False,False,False,Day,Day,Day,Day
A-524101,Source2,1,2022-08-29 05:53:01+00:00,2022-08-29 06:22:50+00:00,41.900791,-88.150681,,,0.0,Crash on Hawthorne Ln at CR-43 County Farm Rd.,27W196 Timber Creek Dr,West Chicago,DuPage,IL,60185,US,US/Central,KDPA,2022-08-29 05:52:00,71.0,71.0,90.0,29.02,10.0,S,8.0,0.0,Partly Cloudy,False,False,True,False,False,False,False,False,False,False,True,False,False,Night,Day,Day,Day
A-524264,Source2,3,2022-08-29 05:10:12+00:00,2022-08-29 05:39:13+00:00,41.859779,-87.641052,,,2.470000028610229,Lane blocked due to crash on I-55 Northbound between Exit 290 Damen Ave and Exit 292 I-90 Dan Ryan Expy.,W 16th St,Chicago,Cook,IL,60616-1146,US,US/Central,KMDW,2022-08-29 04:53:00,75.0,75.0,79.0,29.17,10.0,SSW,7.0,0.0,Fair,False,False,True,False,False,False,False,False,False,False,False,False,False,Night,Night,Day,Day
A-524308,Source2,3,2022-08-29 05:02:28+00:00,2022-08-29 05:32:12+00:00,41.823238,-87.723907,,,0.0,Lane blocked due to crash on I-55 Stevenson Expy Northbound at Exit 287 Pulaski Rd.,S Pulaski Rd,Chicago,Cook,IL,60632,US,US/Central,KMDW,2022-08-29 04:53:00,75.0,75.0,79.0,29.17,10.0,SSW,7.0,0.0,Fair,False,False,False,False,False,False,False,False,False,False,False,True,False,Night,Night,Night,Day
A-524434,Source2,3,2022-08-28 12:59:26+00:00,2022-08-28 13:47:01+00:00,41.932526,-87.695656,,,0.0,Lane blocked due to crash on I-90 Kennedy Expy Westbound at Exit 46B Diversey Ave.,Kennedy Expy W,Chicago,Cook,IL,60618,US,US/Central,KORD,2022-08-28 12:51:00,87.0,87.0,55.0,29.13,10.0,S,15.0,0.0,Mostly Cloudy,False,False,False,False,False,False,False,False,False,False,False,False,False,Day,Day,Day,Day
A-524474,Source2,3,2022-08-28 12:49:15+00:00,2022-08-28 13:48:06+00:00,41.88450200000001,-87.645973,,,0.0,Lane blocked due to crash on I-90 Kennedy Expy Eastbound at Exit 51B / Lake St.,W Randolph St,Chicago,Cook,IL,60661,US,US/Central,KMDW,2022-08-28 12:53:00,89.0,89.0,52.0,29.2,10.0,SSW,15.0,0.0,Mostly Cloudy,False,False,True,False,False,False,False,False,False,False,False,False,False,Day,Day,Day,Day
A-524541,Source2,3,2022-08-28 09:25:32+00:00,2022-08-28 10:09:14+00:00,41.875431,-87.645569,,,0.0,Lane blocked due to crash on I-290 Eisenhower Expy Eastbound at Exit 29B / I-90.,Eisenhower Expy E,Chicago,Cook,IL,60607,US,US/Central,KMDW,2022-08-28 09:53:00,82.0,82.0,62.0,29.24,10.0,SSW,10.0,0.0,Mostly Cloudy,False,False,False,False,False,False,False,False,False,False,False,False,False,Day,Day,Day,Day
A-524575,Source2,3,2022-08-28 08:30:32+00:00,2022-08-28 09:14:51+00:00,41.876186,-87.660774,,,0.0,Lane blocked due to crash on I-290 Eisenhower Expy Eastbound at Exit 28B / Racine Ave.,W Van Buren St,Chicago,Cook,IL,60607,US,US/Central,KMDW,2022-08-28 08:53:00,78.0,78.0,66.0,29.25,10.0,SSW,10.0,0.0,Mostly Cloudy,False,False,False,False,False,False,False,False,False,False,False,False,False,Day,Day,Day,Day
A-524697,Source2,3,2022-08-27 02:34:57+00:00,2022-08-27 03:04:23+00:00,41.984261,-87.83608199999998,,,0.0,Lane blocked due to crash on I-90 outbound at Exits 77 77A 77B 79A 79B 79C I-294 Tri-State Tollway Exits 40 40A 40B.,Kennedy Expy E,Chicago,Cook,IL,60631,US,US/Central,KORD,2022-08-27 02:51:00,60.0,60.0,90.0,29.35,10.0,W,3.0,0.0,Fair,False,False,False,False,False,False,False,False,False,False,False,False,False,Night,Night,Night,Night
A-524937,Source2,3,2022-08-27 06:17:10+00:00,2022-08-27 06:46:37+00:00,41.714443,-87.642914,,,0.0,Lane blocked due to crash on I-57 Northbound at Exit 357 99th St.,S Halsted St,Chicago,Cook,IL,60628,US,US/Central,KMDW,2022-08-27 05:53:00,64.0,64.0,80.0,29.41,10.0,CALM,0.0,0.0,Fair,False,False,True,False,False,False,False,False,True,False,False,True,False,Day,Day,Day,Day
A-524992,Source2,1,2022-08-26 07:37:34+00:00,2022-08-26 08:07:17+00:00,41.90937,-87.765739,,,0.0,Crash on IL-64 North Ave near Central Ave.,N Central Ave,Chicago,Cook,IL,60639,US,US/Central,KORD,2022-08-26 07:51:00,68.0,68.0,84.0,29.33,10.0,N,12.0,0.0,Mostly Cloudy,False,False,True,False,False,False,False,False,True,False,False,True,False,Day,Day,Day,Day
A-524993,Source2,3,2022-08-26 08:07:50+00:00,2022-08-26 10:05:04+00:00,41.954742,-87.73266600000002,,,0.0,Lane blocked due to crash on I-90 Kennedy Expy Westbound at Exit 44A IL-19 Irving Park Rd.,I-90 Express Lane,Chicago,Cook,IL,60641,US,US/Central,KORD,2022-08-26 08:13:00,68.0,68.0,81.0,29.34,10.0,N,12.0,0.0,Mostly Cloudy,False,False,False,False,False,False,False,False,False,False,False,False,False,Day,Day,Day,Day
A-525024,Source2,3,2022-08-26 08:21:08+00:00,2022-08-26 09:22:10+00:00,41.830818,-87.69976,,,0.0,Lane blocked due to crash on I-55 Stevenson Expy Northbound at Exit 89 California Ave.,Stevenson Expy S,Chicago,Cook,IL,60623,US,US/Central,KMDW,2022-08-26 07:53:00,69.0,69.0,84.0,29.39,10.0,N,10.0,0.0,Mostly Cloudy,False,False,False,False,False,False,False,False,False,False,False,False,False,Day,Day,Day,Day
A-525162,Source2,3,2022-08-26 08:48:21+00:00,2022-08-26 10:02:29+00:00,41.859779,-87.641052,,,0.0,Lane blocked due to crash on I-90 Dan Ryan Express Lane Eastbound at Exit 53 I-55.,W 16th St,Chicago,Cook,IL,60616-1146,US,US/Central,KMDW,2022-08-26 08:50:00,70.0,70.0,78.0,29.4,10.0,N,13.0,0.0,Mostly Cloudy,False,False,True,False,False,False,False,False,False,False,False,False,False,Day,Day,Day,Day
A-525205,Source2,3,2022-08-26 07:46:00+00:00,2022-08-26 08:14:19+00:00,41.98238,-87.787453,,,0.0,Lane blocked due to crash on I-90 Kennedy Expy Eastbound at Exit 82 Nagle Ave.,Kennedy Expy E,Chicago,Cook,IL,60630,US,US/Central,KORD,2022-08-26 07:51:00,68.0,68.0,84.0,29.33,10.0,N,12.0,0.0,Mostly Cloudy,False,False,False,False,False,False,False,False,False,False,False,False,False,Day,Day,Day,Day
A-525394,Source2,3,2022-08-26 06:35:51+00:00,2022-08-26 07:05:28+00:00,41.849323,-87.644257,,,0.0,Lane blocked due to crash on I-90 Dan Ryan Express Lane Eastbound at Exit 53 Chinatown Feeder.,Dan Ryan Expy E,Chicago,Cook,IL,60616,US,US/Central,KMDW,2022-08-26 06:53:00,70.0,70.0,81.0,29.37,10.0,NNW,7.0,0.0,Partly Cloudy,False,False,False,False,True,False,False,False,False,False,False,False,False,Day,Day,Day,Day
A-525649,Source2,3,2022-08-26 06:13:02+00:00,2022-08-26 06:42:08+00:00,41.715607,-87.62530500000004,,,0.0,Left lane blocked due to crash on I-94 Bishop Ford Fwy inbound before Exit 63 I-94 Dan Ryan Expy.,Bishop Ford Fwy,Chicago,Cook,IL,60628,US,US/Central,KMDW,2022-08-26 05:53:00,71.0,71.0,78.0,29.36,10.0,NNW,5.0,0.0,Partly Cloudy,False,False,False,False,False,False,False,False,False,False,False,False,False,Day,Day,Day,Day
A-525650,Source2,3,2022-08-26 06:20:15+00:00,2022-08-26 06:49:38+00:00,41.852821,-87.64537800000002,,,0.0,Lane blocked due to crash on I-90 Dan Ryan Express Lane Eastbound at Exit 53 Cermak Rd.,Dan Ryan Expy E,Chicago,Cook,IL,60616,US,US/Central,KMDW,2022-08-26 05:53:00,71.0,71.0,78.0,29.36,10.0,NNW,5.0,0.0,Partly Cloudy,False,False,False,False,False,False,False,False,False,False,False,False,False,Day,Day,Day,Day
A-525799,Source2,1,2022-08-26 06:02:23+00:00,2022-08-26 06:31:42+00:00,41.896629,-87.632729,,,0.0,Crash on Chicago Ave at La Salle Dr.,W Chicago Ave,Chicago,Cook,IL,60654-3224,US,US/Central,KMDW,2022-08-26 05:53:00,71.0,71.0,78.0,29.36,10.0,NNW,5.0,0.0,Partly Cloudy,False,False,True,False,False,False,False,False,True,False,False,True,False,Night,Day,Day,Day
A-525834,Source2,3,2022-08-26 06:13:52+00:00,2022-08-26 06:43:21+00:00,41.793404,-87.631622,,,0.0,Lane blocked due to crash on I-90 Dan Ryan Expy Eastbound at Exit 57 Garfield Blvd.,Dan Ryan Expy E,Chicago,Cook,IL,60621,US,US/Central,KMDW,2022-08-26 05:53:00,71.0,71.0,78.0,29.36,10.0,NNW,5.0,0.0,Partly Cloudy,False,False,False,False,False,False,False,False,False,False,False,False,False,Day,Day,Day,Day
A-525859,Source2,1,2022-08-26 06:01:38+00:00,2022-08-26 06:31:15+00:00,42.308701,-87.876785,,,0.0,Crash on US-41 Skokie Hwy near IL-137 Buckley Rd.,N Skokie Hwy,North Chicago,Lake,IL,60064,US,US/Central,KUGN,2022-08-26 05:55:00,66.0,66.0,87.0,29.26,10.0,N,6.0,0.0,Cloudy,False,False,True,False,False,False,True,False,False,False,False,True,False,Night,Day,Day,Day
A-525937,Source2,3,2022-08-26 04:45:03+00:00,2022-08-26 05:14:43+00:00,41.817348,-87.74282099999998,,,0.0,Lane blocked due to crash on I-55 Stevenson Expy Southbound at Exit 286 IL-50 Cicero Ave.,Adlai E Stevenson Expy N,Chicago,Cook,IL,60632,US,US/Central,KMDW,2022-08-26 04:53:00,71.0,71.0,81.0,29.35,10.0,N,6.0,0.0,Mostly Cloudy,False,False,False,False,False,False,False,False,False,False,False,False,False,Night,Night,Night,Day
A-526414,Source2,1,2022-08-25 06:42:04+00:00,2022-08-25 07:42:35+00:00,41.799,-87.703712,,,0.0,Crash on 52nd St at Kedzie Ave.,S Kedzie Ave,Chicago,Cook,IL,60632-3126,US,US/Central,KMDW,2022-08-25 06:53:00,69.0,69.0,75.0,29.35,8.0,WSW,6.0,0.02,Light Rain,True,False,False,False,False,False,False,False,True,False,False,False,False,Day,Day,Day,Day
A-526586,Source2,2,2022-08-25 18:19:48+00:00,2022-08-25 18:49:34+00:00,41.86541,-88.204643,,,0.0,Lane blocked due to crash on IL-38 Roosevelt Rd at Joliet St.,W Roosevelt Rd,West Chicago,DuPage,IL,60185,US,US/Central,KDPA,2022-08-25 17:52:00,80.0,80.0,67.0,29.13,10.0,W,9.0,0.0,Mostly Cloudy,False,False,False,False,False,False,False,False,False,False,False,True,False,Day,Day,Day,Day
A-526620,Source2,3,2022-08-25 05:30:09+00:00,2022-08-25 05:59:22+00:00,41.751431,-87.624985,,,0.0,Lane blocked due to crash on I-94 Dan Ryan Expy Westbound at Exit 60 79th St.,Dan Ryan Expy W,Chicago,Cook,IL,60620,US,US/Central,KMDW,2022-08-25 05:53:00,71.0,71.0,66.0,29.35,10.0,WSW,8.0,0.0,Cloudy,False,False,False,False,False,False,False,False,False,False,False,False,False,Night,Night,Day,Day
A-526627,Source3,1,2022-08-25 06:52:21+00:00,2022-08-25 07:37:48+00:00,41.876881,-88.235161,,,0.0,Crash on IL-38 Roosevelt Rd at CR-21 Fabyan Pkwy.,W Roosevelt Rd,West Chicago,DuPage,IL,60185,US,US/Central,KDPA,2022-08-25 06:52:00,66.0,66.0,90.0,29.2,10.0,S,8.0,0.08,Light Rain,False,False,False,False,False,False,False,False,False,False,False,True,False,Day,Day,Day,Day
A-526899,Source2,3,2022-08-25 04:09:27+00:00,2022-08-25 04:38:59+00:00,41.916431,-87.669273,,,0.0,Lane blocked due to crash on I-90 Kennedy Expy Eastbound at Exit 48 Ashland Ave.,I-90 E,Chicago,Cook,IL,60622,US,US/Central,KMDW,2022-08-25 03:53:00,72.0,72.0,64.0,29.34,10.0,S,6.0,0.0,Mostly Cloudy,False,False,False,False,False,False,False,False,False,False,False,False,False,Night,Night,Night,Night
A-527025,Source2,3,2022-08-25 00:27:44+00:00,2022-08-25 00:57:11+00:00,41.783131,-87.631676,,,0.0,Lane blocked due to crash on I-90 Dan Ryan Expy Westbound at Exit 58B Yale Ave.,Dan Ryan Expy S,Chicago,Cook,IL,60621,US,US/Central,KMDW,2022-08-25 00:53:00,74.0,74.0,62.0,29.37,10.0,SSW,6.0,0.0,Mostly Cloudy,False,False,False,False,True,False,False,False,False,False,False,False,False,Night,Night,Night,Night
A-527203,Source2,3,2022-08-25 08:47:40+00:00,2022-08-25 09:17:11+00:00,41.830524,-87.63046999999996,,,0.0,Lane blocked due to crash on I-90 Dan Ryan Expy Westbound at Exit 55 35th St.,I-94 Express Lane,Chicago,Cook,IL,60609,US,US/Central,KMDW,2022-08-25 08:53:00,69.0,69.0,81.0,29.35,2.0,SW,9.0,0.06,Rain,False,False,False,False,False,False,False,False,False,False,False,False,False,Day,Day,Day,Day
A-527259,Source2,3,2022-08-25 08:42:36+00:00,2022-08-25 09:12:12+00:00,41.736691,-87.624565,,,0.0,Lane blocked due to crash on I-94 Dan Ryan Expy Westbound at Exit 61 87th St.,Dan Ryan Expy W,Chicago,Cook,IL,60620,US,US/Central,KMDW,2022-08-25 08:53:00,69.0,69.0,81.0,29.35,2.0,SW,9.0,0.06,Rain,False,False,False,False,False,False,False,False,False,False,False,False,False,Day,Day,Day,Day
A-527261,Source2,3,2022-08-25 07:35:44+00:00,2022-08-25 08:21:32+00:00,41.859779,-87.641052,,,0.0,Lane blocked due to crash on I-90 Dan Ryan Express Lane Eastbound at Exit 53 I-55.,W 16th St,Chicago,Cook,IL,60616-1146,US,US/Central,KMDW,2022-08-25 07:53:00,69.0,69.0,78.0,29.34,10.0,SSW,8.0,0.02,Cloudy,False,False,True,False,False,False,False,False,False,False,False,False,False,Day,Day,Day,Day
A-527273,Source2,3,2022-08-25 09:38:45+00:00,2022-08-25 10:09:00+00:00,41.808762,-87.631592,,,0.0,Lane blocked due to crash on I-90 Dan Ryan Express Lane Westbound at Exit 56B / 47th St.,I-90 Express Lane,Chicago,Cook,IL,60609,US,US/Central,KMDW,2022-08-25 09:53:00,70.0,70.0,81.0,29.34,10.0,S,10.0,0.11,Cloudy,False,False,False,False,False,False,False,False,True,False,False,False,False,Day,Day,Day,Day
A-527302,Source2,1,2022-08-25 07:40:33+00:00,2022-08-25 08:25:31+00:00,41.883072,-88.194542,,,0.0,Crash on IL-59 Neltnor Blvd near Colford Ave.,Colford Ave,West Chicago,DuPage,IL,60185,US,US/Central,KDPA,2022-08-25 07:37:00,66.0,66.0,93.0,29.2,2.0,SSW,10.0,0.06,Light Rain,False,False,False,False,False,False,False,False,False,True,False,False,False,Day,Day,Day,Day
A-527309,Source2,1,2022-08-25 07:57:31+00:00,2022-08-25 08:43:24+00:00,41.80571,-87.749199,,,0.0,Crash on Lawler Ave near 48th St.,S Lawler Ave,Chicago,Cook,IL,60638-2141,US,US/Central,KMDW,2022-08-25 07:53:00,69.0,69.0,78.0,29.34,10.0,SSW,8.0,0.02,Cloudy,False,False,False,False,False,False,False,False,False,False,False,False,False,Day,Day,Day,Day
A-527343,Source2,3,2022-08-25 07:52:11+00:00,2022-08-25 08:21:47+00:00,41.838726,-87.63104200000002,,,0.0,Lane blocked due to crash on I-90 Dan Ryan Express Lane Eastbound at Exit 54 31st St.,I-94 Express Lane,Chicago,Cook,IL,60616,US,US/Central,KMDW,2022-08-25 07:53:00,69.0,69.0,78.0,29.34,10.0,SSW,8.0,0.02,Cloudy,False,False,False,False,False,False,False,False,False,False,False,False,False,Day,Day,Day,Day
A-527344,Source2,1,2022-08-25 07:58:12+00:00,2022-08-25 08:43:25+00:00,41.891682,-87.626694,,,0.0,Crash on Grand Ave at Wabash Ave.,E Grand Ave,Chicago,Cook,IL,60611,US,US/Central,KMDW,2022-08-25 07:53:00,69.0,69.0,78.0,29.34,10.0,SSW,8.0,0.02,Cloudy,True,False,True,False,False,False,False,False,False,False,False,True,False,Day,Day,Day,Day
A-527345,Source2,3,2022-08-25 07:42:05+00:00,2022-08-25 08:11:36+00:00,41.892704,-87.646751,,,0.0,Lane blocked due to crash on I-90 Kennedy Expy Westbound at Exit 50B Ohio St.,W Ohio St,Chicago,Cook,IL,60654-39ND,US,US/Central,KMDW,2022-08-25 07:53:00,69.0,69.0,78.0,29.34,10.0,SSW,8.0,0.02,Cloudy,False,False,False,False,False,False,True,False,False,False,False,False,False,Day,Day,Day,Day
A-527361,Source2,1,2022-08-25 07:58:33+00:00,2022-08-25 08:43:51+00:00,41.892601,-87.62024699999998,,,0.0,Crash on Ohio St at Fairbanks Ct.,N Fairbanks Ct,Chicago,Cook,IL,60611,US,US/Central,KMDW,2022-08-25 07:53:00,69.0,69.0,78.0,29.34,10.0,SSW,8.0,0.02,Cloudy,True,False,True,False,False,False,False,False,False,False,False,True,False,Day,Day,Day,Day
A-527385,Source2,3,2022-08-25 07:52:51+00:00,2022-08-25 08:22:23+00:00,41.859779,-87.641052,,,0.0,Lane blocked due to crash on I-55 Southbound at Exit 292 I-90 Dan Ryan Expy.,W 16th St,Chicago,Cook,IL,60616-1146,US,US/Central,KMDW,2022-08-25 07:53:00,69.0,69.0,78.0,29.34,10.0,SSW,8.0,0.02,Cloudy,False,False,True,False,False,False,False,False,False,False,False,False,False,Day,Day,Day,Day
A-527386,Source3,1,2022-08-25 07:18:08+00:00,2022-08-25 07:47:55+00:00,41.869019,-88.219101,,,0.0,Crash on IL-38 Roosevelt Rd at Town Rd.,W Roosevelt Rd,West Chicago,DuPage,IL,60185,US,US/Central,KDPA,2022-08-25 07:20:00,66.0,66.0,90.0,29.2,2.0,SSW,9.0,0.03,Heavy Rain,False,False,False,False,False,False,False,False,False,False,False,False,False,Day,Day,Day,Day
A-527387,Source2,3,2022-08-25 07:16:13+00:00,2022-08-25 07:44:55+00:00,41.871063,-87.77377299999998,,,0.0,Lane blocked due to crash on I-290 Eisenhower Expy Westbound at Exit 23A Austin Blvd.,23A,Chicago,Cook,IL,60644,US,US/Central,KMDW,2022-08-25 06:53:00,69.0,69.0,75.0,29.35,8.0,WSW,6.0,0.02,Light Rain,False,False,False,False,False,False,False,False,False,False,False,False,False,Day,Day,Day,Day
A-527465,Source2,1,2022-08-25 07:28:24+00:00,2022-08-25 08:21:27+00:00,41.894852,-87.765373,,,0.0,Crash on Central Ave at Chicago Ave.,W Chicago Ave,Chicago,Cook,IL,60651-2727,US,US/Central,KMDW,2022-08-25 07:53:00,69.0,69.0,78.0,29.34,10.0,SSW,8.0,0.02,Cloudy,False,False,True,False,False,False,False,False,True,False,False,True,False,Day,Day,Day,Day
A-527559,Source2,3,2022-08-24 05:48:36+00:00,2022-08-24 06:18:15+00:00,41.750515,-87.625381,,,0.0,Lane blocked due to crash on I-94 Dan Ryan Expy Eastbound at Exit 60 79th St.,Dan Ryan Expy E,Chicago,Cook,IL,60620,US,US/Central,KMDW,2022-08-24 05:53:00,69.0,69.0,70.0,29.38,10.0,WNW,3.0,0.0,Fair,False,False,False,False,False,False,True,False,True,False,False,False,False,Night,Day,Day,Day
A-527560,Source2,3,2022-08-24 05:49:05+00:00,2022-08-24 06:18:42+00:00,41.75832,-87.625816,,,0.0,Lane blocked due to crash on I-94 Dan Ryan Expy Eastbound at Exit 59 75th St.,Dan Ryan Expy E,Chicago,Cook,IL,60621,US,US/Central,KMDW,2022-08-24 05:53:00,69.0,69.0,70.0,29.38,10.0,WNW,3.0,0.0,Fair,False,False,False,False,False,False,False,False,False,False,False,False,False,Night,Day,Day,Day
A-527923,Source2,3,2022-08-24 04:14:27+00:00,2022-08-24 04:44:03+00:00,41.98233,-87.814194,,,0.0,Lane blocked due to crash on I-90 Kennedy Expy Eastbound near Exit 81A IL-72 Higgins Ave.,I-90,Chicago,Cook,IL,60631,US,US/Central,KORD,2022-08-24 03:51:00,68.0,68.0,73.0,29.31,10.0,W,3.0,0.0,Fair,False,False,False,False,False,False,False,False,False,False,False,False,False,Night,Night,Night,Night
A-527925,Source2,2,2022-08-24 04:41:43+00:00,2022-08-24 05:03:02+00:00,41.747292,-87.62442800000002,,,0.0,Lane blocked due to crash on State St Eastbound at 81st St.,E 81st St,Chicago,Cook,IL,60619,US,US/Central,KMDW,2022-08-24 04:53:00,68.0,68.0,73.0,29.38,10.0,CALM,0.0,0.0,Fair,False,False,False,False,True,False,False,False,True,False,False,False,False,Night,Night,Night,Day
A-528299,Source2,3,2022-08-24 07:56:52+00:00,2022-08-24 08:57:25+00:00,41.902996,-87.66107199999998,,,0.0,Lane blocked due to crash on I-90 Kennedy Expy Westbound at Exit 49A Division St.,I-90 E,Chicago,Cook,IL,60642,US,US/Central,KMDW,2022-08-24 07:53:00,73.0,73.0,64.0,29.4,10.0,CALM,0.0,0.0,Fair,False,False,False,False,False,False,False,False,False,False,False,False,False,Day,Day,Day,Day
A-528300,Source2,3,2022-08-24 08:57:29+00:00,2022-08-24 09:27:13+00:00,41.975613,-87.771652,,,0.0,Lane blocked due to crash on I-90 Kennedy Expy Westbound at Exit 83A Foster Ave.,Kennedy Expy W,Chicago,Cook,IL,60630,US,US/Central,KORD,2022-08-24 08:51:00,76.0,76.0,54.0,29.35,10.0,NW,5.0,0.0,Fair,False,False,True,False,False,False,True,False,False,False,False,True,False,Day,Day,Day,Day
A-528384,Source2,3,2022-08-24 07:33:49+00:00,2022-08-24 08:18:43+00:00,41.802238,-87.631248,,,0.0,Lane blocked due to crash on I-90 Dan Ryan Express Lane Westbound at Exit 57 51st St.,I-90 Express Lane,Chicago,Cook,IL,60609,US,US/Central,KMDW,2022-08-24 07:53:00,73.0,73.0,64.0,29.4,10.0,CALM,0.0,0.0,Fair,False,False,False,False,False,False,False,False,False,False,False,False,False,Day,Day,Day,Day
A-528441,Source2,1,2022-08-24 08:33:23+00:00,2022-08-24 09:03:12+00:00,41.895859,-87.616386,,,0.0,Crash on Superior St at Jean Baptiste Pointe Dusable Lk Shr Dr.,E Superior St,Chicago,Cook,IL,60611-2654,US,US/Central,KMDW,2022-08-24 08:53:00,79.0,79.0,50.0,29.41,10.0,CALM,0.0,0.0,Fair,False,False,True,False,False,False,False,False,False,True,False,False,False,Day,Day,Day,Day
A-528442,Source2,1,2022-08-24 08:33:44+00:00,2022-08-24 09:18:46+00:00,41.895859,-87.616386,,,0.0,Crash on Superior St at Jean Baptiste Pointe Dusable Lk Shr Dr.,E Superior St,Chicago,Cook,IL,60611-2654,US,US/Central,KMDW,2022-08-24 08:53:00,79.0,79.0,50.0,29.41,10.0,CALM,0.0,0.0,Fair,False,False,True,False,False,False,False,False,False,True,False,False,False,Day,Day,Day,Day
A-528482,Source2,1,2022-08-24 08:42:38+00:00,2022-08-24 09:27:32+00:00,41.878269,-87.624298,,,0.0,Crash police vehicle involved on Jackson Blvd at Michigan Ave.,E Jackson Blvd,Chicago,Cook,IL,60604,US,US/Central,KMDW,2022-08-24 08:53:00,79.0,79.0,50.0,29.41,10.0,CALM,0.0,0.0,Fair,False,False,True,False,False,False,False,False,True,False,False,True,False,Day,Day,Day,Day
A-528502,Source2,3,2022-08-24 07:27:01+00:00,2022-08-24 07:56:44+00:00,41.91813300000001,-87.670975,,,0.0,Lane blocked due to crash on I-90 Kennedy Expy Westbound at Exit 48A Armitage Ave.,I-90 E,Chicago,Cook,IL,60614,US,US/Central,KMDW,2022-08-24 07:53:00,73.0,73.0,64.0,29.4,10.0,CALM,0.0,0.0,Fair,False,False,False,False,False,False,False,False,False,False,False,False,False,Day,Day,Day,Day
A-528538,Source2,3,2022-08-24 06:25:46+00:00,2022-08-24 07:10:50+00:00,41.715607,-87.62530500000004,,,2.8299999237060547,Lane blocked due to crash on I-94 Bishop Ford Fwy Westbound between Exit 65 Stony Island Ext and Exit 63 I-57.,Bishop Ford Fwy,Chicago,Cook,IL,60628,US,US/Central,KMDW,2022-08-24 06:53:00,69.0,69.0,70.0,29.39,10.0,CALM,0.0,0.0,Fair,False,False,False,False,False,False,False,False,False,False,False,False,False,Day,Day,Day,Day
A-529316,Source2,3,2022-08-23 09:35:19+00:00,2022-08-23 10:18:27+00:00,41.879921,-87.64550799999998,,,0.0,Lane blocked due to crash on I-90 Dan Ryan Express Lane Westbound at Exit 51D / Madison St.,Kennedy Expy W,Chicago,Cook,IL,60661,US,US/Central,KMDW,2022-08-23 09:53:00,79.0,79.0,50.0,29.35,10.0,WNW,7.0,0.0,Fair,False,False,False,False,False,False,False,False,False,False,False,False,False,Day,Day,Day,Day
A-529361,Source2,3,2022-08-23 08:00:32+00:00,2022-08-23 08:45:42+00:00,41.963955,-87.74623100000002,,,0.0,Lane blocked due to crash on I-90 Kennedy Expy Westbound at Exit 43 I-94 Edens Expy.,Edens Expy W,Chicago,Cook,IL,60630,US,US/Central,KORD,2022-08-23 07:51:00,68.0,68.0,73.0,29.29,10.0,W,7.0,0.0,Partly Cloudy,False,False,False,False,False,False,False,False,False,False,False,False,False,Day,Day,Day,Day
A-529517,Source2,1,2022-08-23 08:16:34+00:00,2022-08-23 09:17:08+00:00,41.885731,-87.63391899999998,,,0.0,Crash on Lake St at Wells St.,N Wells St,Chicago,Cook,IL,60606-1817,US,US/Central,KMDW,2022-08-23 07:53:00,70.0,70.0,68.0,29.35,10.0,W,7.0,0.0,Partly Cloudy,True,False,True,False,True,False,True,False,True,False,False,True,False,Day,Day,Day,Day
A-529547,Source2,3,2022-08-23 07:51:49+00:00,2022-08-23 08:37:20+00:00,41.990318,-87.751091,,,0.0,Lane blocked due to crash on I-94 Edens Expy Westbound at Exit 41 US-14 Peterson Ave.,Edens Expy W,Chicago,Cook,IL,60646,US,US/Central,KORD,2022-08-23 07:51:00,68.0,68.0,73.0,29.29,10.0,W,7.0,0.0,Partly Cloudy,False,False,False,False,True,False,False,False,False,False,False,False,False,Day,Day,Day,Day
A-529565,Source2,1,2022-08-23 07:58:21+00:00,2022-08-23 08:43:24+00:00,41.845669,-87.620468,,,0.0,Crash on Prairie Ave near 26th St.,S Prairie Ave,Chicago,Cook,IL,60616-2817,US,US/Central,KMDW,2022-08-23 07:53:00,70.0,70.0,68.0,29.35,10.0,W,7.0,0.0,Partly Cloudy,False,False,True,False,False,False,False,False,True,False,False,False,False,Day,Day,Day,Day
A-529598,Source2,3,2022-08-23 07:18:18+00:00,2022-08-23 08:03:12+00:00,41.982342,-87.792404,,,0.0,Lane blocked due to crash on I-90 Kennedy Expy Eastbound at Exit 82 Natoma Ave.,Kennedy Expy E,Chicago,Cook,IL,60656,US,US/Central,KORD,2022-08-23 06:51:00,65.0,65.0,81.0,29.27,10.0,W,6.0,0.0,Partly Cloudy,False,False,False,False,False,False,False,False,False,False,False,False,False,Day,Day,Day,Day
A-529632,Source2,3,2022-08-23 07:40:11+00:00,2022-08-23 08:09:33+00:00,41.80938,-87.631416,,,0.0,Lane blocked due to crash on I-90 Dan Ryan Express Lane Westbound at Exit 56 47th St.,Dan Ryan Expy N,Chicago,Cook,IL,60609,US,US/Central,KMDW,2022-08-23 07:53:00,70.0,70.0,68.0,29.35,10.0,W,7.0,0.0,Partly Cloudy,False,False,True,False,False,False,False,False,True,False,False,True,False,Day,Day,Day,Day
A-529655,Source2,3,2022-08-23 07:42:03+00:00,2022-08-23 08:11:02+00:00,41.48711,-87.577377,,,0.0,Lane blocked due to crash on IL-394 Northbound at Sauk Trl.,Bishop Ford Fwy,Chicago Heights,Cook,IL,60411,US,US/Central,KIGQ,2022-08-23 07:35:00,62.0,62.0,100.0,29.36,7.0,WSW,3.0,0.0,Fair,False,False,True,False,False,False,False,False,False,False,False,True,False,Day,Day,Day,Day
A-529686,Source2,1,2022-08-23 08:15:39+00:00,2022-08-23 08:45:18+00:00,41.91996,-88.238045,,,0.0,Crash on IL-64 North Ave at CR-18 Powis Rd.,31W720 North Ave,West Chicago,DuPage,IL,60185,US,US/Central,KDPA,2022-08-23 07:52:00,68.0,68.0,78.0,29.21,10.0,CALM,0.0,0.0,Fair,False,False,False,False,False,False,False,False,False,False,False,True,False,Day,Day,Day,Day
A-529716,Source2,1,2022-08-23 07:08:29+00:00,2022-08-23 07:38:19+00:00,41.852879,-87.627113,,,0.0,Crash on State St at Cermak Rd.,S State St,Chicago,Cook,IL,60616,US,US/Central,KMDW,2022-08-23 06:53:00,67.0,67.0,76.0,29.33,10.0,W,3.0,0.0,Mostly Cloudy,False,False,True,False,False,False,False,False,False,False,False,True,False,Day,Day,Day,Day
A-529853,Source2,2,2022-08-23 06:23:55+00:00,2022-08-23 07:08:48+00:00,41.688717,-87.599983,,,0.0,Crash on I-94 Bishop Ford Fwy Westbound at Exit 66 115th St.,Bishop Ford Fwy W,Chicago,Cook,IL,60628,US,US/Central,KMDW,2022-08-23 06:53:00,67.0,67.0,76.0,29.33,10.0,W,3.0,0.0,Mostly Cloudy,False,False,False,False,False,False,False,False,False,False,False,False,False,Day,Day,Day,Day
A-529921,Source2,1,2022-08-23 04:47:49+00:00,2022-08-23 05:49:06+00:00,41.816921,-87.723907,,,0.0,Crash on 42nd St Southbound at Pulaski Rd.,W 42nd St,Chicago,Cook,IL,60632,US,US/Central,KMDW,2022-08-23 04:53:00,66.0,66.0,78.0,29.33,10.0,CALM,0.0,0.0,Mostly Cloudy,False,False,False,False,False,False,False,False,True,False,False,False,False,Night,Night,Night,Day
A-530617,Source2,3,2022-08-22 07:47:14+00:00,2022-08-22 08:32:15+00:00,41.823238,-87.723907,,,0.0,Lane blocked due to crash on I-55 Stevenson Expy Northbound at Exit 287 Pulaski Rd.,S Pulaski Rd,Chicago,Cook,IL,60632,US,US/Central,KMDW,2022-08-22 07:53:00,71.0,71.0,73.0,29.38,10.0,N,6.0,0.0,Fair,False,False,False,False,False,False,False,False,False,False,False,True,False,Day,Day,Day,Day
A-530629,Source2,3,2022-08-22 08:19:14+00:00,2022-08-22 09:04:06+00:00,41.876186,-87.660774,,,0.0,Lane blocked due to crash on I-290 Eisenhower Expy Westbound at Exit 28B Racine Ave.,W Van Buren St,Chicago,Cook,IL,60607,US,US/Central,KMDW,2022-08-22 07:53:00,71.0,71.0,73.0,29.38,10.0,N,6.0,0.0,Fair,False,False,False,False,False,False,False,False,False,False,False,False,False,Day,Day,Day,Day
A-530637,Source2,3,2022-08-22 08:58:07+00:00,2022-08-22 09:27:35+00:00,41.930885,-87.693359,,,0.0,Lane blocked due to crash on I-90 Kennedy Expy Eastbound at Exit 46B Diversey Ave.,I-90 Express Lane,Chicago,Cook,IL,60647,US,US/Central,KMDW,2022-08-22 08:53:00,76.0,76.0,62.0,29.38,10.0,N,8.0,0.0,Fair,False,False,False,False,False,False,False,False,False,False,False,False,False,Day,Day,Day,Day
A-530638,Source2,3,2022-08-22 08:57:27+00:00,2022-08-22 09:27:01+00:00,41.94136,-87.712456,,,0.0,Lane blocked due to crash on I-90 Kennedy Expy Westbound at Exit 45 Kimball Ave.,Kennedy Expy W,Chicago,Cook,IL,60618,US,US/Central,KORD,2022-08-22 08:51:00,73.0,73.0,71.0,29.32,10.0,N,7.0,0.0,Fair,False,False,False,False,False,False,False,False,False,False,False,False,False,Day,Day,Day,Day
A-530659,Source2,3,2022-08-22 08:05:09+00:00,2022-08-22 08:34:44+00:00,41.925976,-87.68445600000004,,,0.0,Lane blocked due to crash on I-90 Kennedy Expy Westbound at Exit 47A Western Ave.,I-90 Express Lane,Chicago,Cook,IL,60647,US,US/Central,KMDW,2022-08-22 07:53:00,71.0,71.0,73.0,29.38,10.0,N,6.0,0.0,Fair,False,False,False,False,False,False,False,False,False,False,False,False,False,Day,Day,Day,Day
A-530713,Source2,3,2022-08-22 08:06:25+00:00,2022-08-22 08:35:35+00:00,41.715607,-87.62530500000004,,,1.1599999666213991,Lane blocked due to crash on I-94 Bishop Ford Fwy Westbound between Exit 62 Lafayette Ave and Exit 63 I-57.,Bishop Ford Fwy,Chicago,Cook,IL,60628,US,US/Central,KMDW,2022-08-22 07:53:00,71.0,71.0,73.0,29.38,10.0,N,6.0,0.0,Fair,False,False,False,False,False,False,False,False,False,False,False,False,False,Day,Day,Day,Day
A-530714,Source2,1,2022-08-22 08:08:57+00:00,2022-08-22 08:53:46+00:00,41.820751,-87.69336700000002,,,0.0,Crash pedestrian involved on Archer Ave near Montgomery Ave.,S Montgomery Ave,Chicago,Cook,IL,60632-1145,US,US/Central,KMDW,2022-08-22 07:53:00,71.0,71.0,73.0,29.38,10.0,N,6.0,0.0,Fair,False,False,False,False,False,False,False,False,False,False,False,False,False,Day,Day,Day,Day
A-530722,Source2,1,2022-08-22 08:40:46+00:00,2022-08-22 09:25:49+00:00,41.887619,-87.738136,,,0.0,Crash on Kinzie St at Kilbourn Ave.,W Kinzie St,Chicago,Cook,IL,60624,US,US/Central,KMDW,2022-08-22 08:53:00,76.0,76.0,62.0,29.38,10.0,N,8.0,0.0,Fair,False,False,True,False,False,False,True,False,False,False,False,False,False,Day,Day,Day,Day
A-530728,Source2,1,2022-08-22 08:14:04+00:00,2022-08-22 08:59:19+00:00,41.8521,-88.202972,,,0.0,Crash on IL-59 at Joliet St.,1S596 State Route 59,West Chicago,DuPage,IL,60185-4401,US,US/Central,KDPA,2022-08-22 07:52:00,68.0,68.0,81.0,29.25,10.0,NNW,5.0,0.0,Fair,False,False,False,False,False,False,False,False,False,False,False,True,False,Day,Day,Day,Day
A-530730,Source3,1,2022-08-22 07:58:10+00:00,2022-08-22 08:27:18+00:00,41.946529,-87.71642299999998,,,0.0,Crash bycyclist involved on Addison St at Drake Ave.,N Drake Ave,Chicago,Cook,IL,60618-4224,US,US/Central,KORD,2022-08-22 07:51:00,69.0,69.0,78.0,29.32,10.0,N,7.0,0.0,Fair,False,False,True,False,False,False,False,False,False,True,False,False,False,Day,Day,Day,Day
A-530748,Source2,3,2022-08-22 08:49:22+00:00,2022-08-22 09:36:51+00:00,41.751175,-87.624977,,,0.0,Lane blocked due to crash on I-94 Dan Ryan Expy Westbound at Exit 60 79th St.,Dan Ryan Expy W,Chicago,Cook,IL,60620,US,US/Central,KMDW,2022-08-22 08:53:00,76.0,76.0,62.0,29.38,10.0,N,8.0,0.0,Fair,False,False,False,False,False,False,True,False,True,False,False,False,False,Day,Day,Day,Day
A-530754,Source2,3,2022-08-22 08:21:46+00:00,2022-08-22 09:06:57+00:00,41.921631,-87.676262,,,0.0,Lane blocked due to crash on I-90 Kennedy Expy Westbound at Exit 47B Damen Ave.,I-90 W,Chicago,Cook,IL,60614,US,US/Central,KMDW,2022-08-22 07:53:00,71.0,71.0,73.0,29.38,10.0,N,6.0,0.0,Fair,False,False,False,False,False,False,False,False,False,False,False,False,False,Day,Day,Day,Day
A-530797,Source2,3,2022-08-22 06:39:15+00:00,2022-08-22 07:08:51+00:00,41.688717,-87.599983,,,0.0,Lane blocked due to crash on I-94 Bishop Ford Fwy Westbound at Exit 66 111th St.,Bishop Ford Fwy W,Chicago,Cook,IL,60628,US,US/Central,KMDW,2022-08-22 06:53:00,68.0,68.0,81.0,29.37,10.0,NNW,5.0,0.0,Fair,False,False,False,False,False,False,False,False,False,False,False,False,False,Day,Day,Day,Day
A-530815,Source2,1,2022-08-22 07:15:33+00:00,2022-08-22 08:00:32+00:00,41.842388,-88.20269,,,0.0,Crash on IL-59 at Mack Rd.,State Route 59,West Chicago,DuPage,IL,60185,US,US/Central,KDPA,2022-08-22 06:52:00,62.0,62.0,93.0,29.24,8.0,NNW,3.0,0.0,Fair,False,False,False,False,False,False,False,False,False,False,False,True,False,Day,Day,Day,Day
A-530839,Source2,3,2022-08-22 06:46:38+00:00,2022-08-22 07:48:58+00:00,41.925976,-87.68445600000004,,,0.0,Lane blocked due to crash on I-90 Kennedy Expy Eastbound at Exit 47A Fullerton Ave.,I-90 Express Lane,Chicago,Cook,IL,60647,US,US/Central,KMDW,2022-08-22 06:53:00,68.0,68.0,81.0,29.37,10.0,NNW,5.0,0.0,Fair,False,False,False,False,False,False,False,False,False,False,False,False,False,Day,Day,Day,Day
A-531053,Source2,3,2022-08-22 05:35:23+00:00,2022-08-22 06:05:04+00:00,41.859779,-87.641052,,,0.0,Lane blocked due to crash on I-90 Dan Ryan Express Lane Eastbound at Exit 53 I-55.,W 16th St,Chicago,Cook,IL,60616-1146,US,US/Central,KMDW,2022-08-22 05:53:00,66.0,66.0,84.0,29.36,10.0,NW,7.0,0.0,Fair,False,False,True,False,False,False,False,False,False,False,False,False,False,Night,Night,Day,Day
A-531553,Source2,3,2022-08-21 07:48:43+00:00,2022-08-21 08:47:27+00:00,41.874218,-87.720261,,,0.0,Lane blocked due to crash on I-290 Eisenhower Expy Eastbound at Exit 26A / Hamlin Blvd.,S Independence Blvd,Chicago,Cook,IL,60624,US,US/Central,KMDW,2022-08-21 07:53:00,72.0,72.0,84.0,29.29,8.0,N,8.0,0.0,Cloudy,False,False,False,False,False,False,False,False,False,False,False,True,False,Day,Day,Day,Day
A-531778,Source2,3,2022-08-20 13:47:15+00:00,2022-08-20 14:16:15+00:00,41.847542,-87.6427,,,0.0,Lane blocked due to crash on I-90 Dan Ryan Express Lane Eastbound at Exit 53C / I-55 Exits 292.,Dan Ryan Expy E,Chicago,Cook,IL,60616,US,US/Central,KMDW,2022-08-20 13:53:00,73.0,73.0,79.0,29.3,10.0,SW,10.0,0.03,Light Rain,False,False,False,False,False,False,False,False,False,False,False,False,False,Day,Day,Day,Day
A-531824,Source2,3,2022-08-20 11:49:35+00:00,2022-08-20 12:36:06+00:00,41.902996,-87.66107199999998,,,0.0,Lane blocked due to crash on I-90 Kennedy Expy Eastbound at Exit 49A Division St.,I-90 E,Chicago,Cook,IL,60642,US,US/Central,KMDW,2022-08-20 11:53:00,72.0,72.0,76.0,29.33,10.0,SSW,13.0,0.01,Mostly Cloudy,False,False,False,False,False,False,False,False,False,False,False,False,False,Day,Day,Day,Day
A-531842,Source2,3,2022-08-20 09:27:55+00:00,2022-08-20 10:30:28+00:00,41.660538,-87.588875,,,0.0,Right lane blocked due to crash on I-94 Bishop Ford Fwy Westbound at Exits 68A / 130th St.,Bishop Ford Fwy W,Chicago,Cook,IL,60633,US,US/Central,KGYY,2022-08-20 09:45:00,70.0,70.0,88.0,29.36,10.0,S,6.0,0.0,Mostly Cloudy,False,False,False,False,True,False,False,False,False,False,False,False,False,Day,Day,Day,Day
A-532260,Source2,2,2022-08-19 16:11:52+00:00,2022-08-19 16:41:36+00:00,41.881535,-88.254791,,,0.0,Lane blocked due to crash on IL-38 Roosevelt Rd at Technology Blvd.,32W420 W Roosevelt Rd,West Chicago,DuPage,IL,60185-2634,US,US/Central,KDPA,2022-08-19 15:52:00,80.0,80.0,52.0,29.11,10.0,S,13.0,0.0,Cloudy,False,False,False,False,False,False,False,False,False,True,False,False,False,Day,Day,Day,Day
A-532467,Source2,3,2022-08-19 10:03:24+00:00,2022-08-19 10:33:11+00:00,41.925976,-87.68445600000004,,,0.0,Lane blocked due to crash on I-90 Kennedy Expy Eastbound at Exit 47A Fullerton Ave.,I-90 Express Lane,Chicago,Cook,IL,60647,US,US/Central,KMDW,2022-08-19 09:53:00,80.0,80.0,50.0,29.31,10.0,SW,13.0,0.0,Fair,False,False,False,False,False,False,False,False,False,False,False,False,False,Day,Day,Day,Day
A-532530,Source2,3,2022-08-19 10:48:07+00:00,2022-08-19 11:16:02+00:00,41.875195,-87.695908,,,0.0,Lane blocked due to crash on I-290 Eisenhower Expy Eastbound at Exit 27 California Ave.,Eisenhower Expy,Chicago,Cook,IL,60612,US,US/Central,KMDW,2022-08-19 10:53:00,82.0,82.0,47.0,29.31,10.0,SW,14.0,0.0,Fair,False,False,False,False,False,False,False,False,False,False,False,False,False,Day,Day,Day,Day
A-532557,Source2,3,2022-08-19 08:59:24+00:00,2022-08-19 09:29:05+00:00,41.895622,-87.656952,,,0.0,Lane blocked due to crash on I-90 Kennedy Expy Eastbound at Exit 50 Ogden Ave.,Kennedy Expy W,Chicago,Cook,IL,60642,US,US/Central,KMDW,2022-08-19 08:53:00,78.0,78.0,56.0,29.31,10.0,SW,10.0,0.0,Fair,False,False,False,False,False,False,False,False,False,False,False,True,False,Day,Day,Day,Day
A-532560,Source2,3,2022-08-19 09:46:27+00:00,2022-08-19 10:31:12+00:00,41.793404,-87.631622,,,0.0,Lane blocked due to crash on I-90 Dan Ryan Expy Eastbound at Exit 57 Garfield Blvd.,Dan Ryan Expy E,Chicago,Cook,IL,60621,US,US/Central,KMDW,2022-08-19 09:53:00,80.0,80.0,50.0,29.31,10.0,SW,13.0,0.0,Fair,False,False,False,False,False,False,False,False,False,False,False,False,False,Day,Day,Day,Day
A-532862,Source2,1,2022-08-19 07:51:29+00:00,2022-08-19 08:37:37+00:00,42.309471,-87.892433,,,0.0,Crash on IL-43 Waukegan Rd Northbound at IL-137 Buckley Rd.,W Buckley Rd,North Chicago,Lake,IL,60064,US,US/Central,KUGN,2022-08-19 07:55:00,71.0,71.0,70.0,29.17,10.0,SW,9.0,0.0,Fair,False,False,False,False,False,False,False,False,False,False,False,True,False,Day,Day,Day,Day
A-532909,Source2,3,2022-08-19 06:53:28+00:00,2022-08-19 07:23:09+00:00,41.871063,-87.77377299999998,,,0.0,Lane blocked due to crash on I-290 Eisenhower Expy Westbound at Exit 23A Austin Blvd.,23A,Chicago,Cook,IL,60644,US,US/Central,KMDW,2022-08-19 06:53:00,70.0,70.0,68.0,29.3,10.0,SSW,7.0,0.0,Partly Cloudy,False,False,False,False,False,False,False,False,False,False,False,False,False,Day,Day,Day,Day
A-532939,Source2,3,2022-08-19 07:19:46+00:00,2022-08-19 07:49:27+00:00,41.892704,-87.646751,,,0.0,Lane blocked due to crash on I-90 Kennedy Expy Westbound at Exit 50B Ohio St.,W Ohio St,Chicago,Cook,IL,60654-39ND,US,US/Central,KMDW,2022-08-19 06:53:00,70.0,70.0,68.0,29.3,10.0,SSW,7.0,0.0,Partly Cloudy,False,False,False,False,False,False,True,False,False,False,False,False,False,Day,Day,Day,Day
A-532949,Source2,3,2022-08-19 07:30:03+00:00,2022-08-19 07:59:35+00:00,41.859779,-87.641052,,,0.0,Lane blocked due to crash on I-90 Dan Ryan Express Lane Westbound at Exit 53 I-55.,W 16th St,Chicago,Cook,IL,60616-1146,US,US/Central,KMDW,2022-08-19 07:53:00,74.0,74.0,64.0,29.31,10.0,SSW,10.0,0.0,Fair,False,False,True,False,False,False,False,False,False,False,False,False,False,Day,Day,Day,Day
A-533005,Source2,3,2022-08-19 05:54:32+00:00,2022-08-19 06:23:59+00:00,41.85545,-87.644501,,,0.0,Lane blocked due to crash on I-90 Dan Ryan Express Lane Westbound at Exit 53 Canalport Ave.,Dan Ryan Expy W,Chicago,Cook,IL,60616,US,US/Central,KMDW,2022-08-19 05:53:00,69.0,69.0,68.0,29.3,10.0,S,7.0,0.0,Partly Cloudy,False,False,False,False,False,False,False,False,False,False,False,False,False,Night,Day,Day,Day
A-533006,Source2,3,2022-08-19 05:23:30+00:00,2022-08-19 06:23:56+00:00,41.873672,-87.72998,,,0.0,Lane blocked due to crash on I-290 Eisenhower Expy Eastbound at Exit 25 Keeler Ave.,Eisenhower Expy,Chicago,Cook,IL,60624,US,US/Central,KMDW,2022-08-19 05:53:00,69.0,69.0,68.0,29.3,10.0,S,7.0,0.0,Partly Cloudy,False,False,False,False,False,True,False,False,False,False,False,False,False,Night,Night,Day,Day
A-533034,Source2,3,2022-08-19 05:24:25+00:00,2022-08-19 06:09:23+00:00,41.964085,-87.745956,,,0.0,Lane blocked due to crash on I-94 Edens Expy Westbound at Exit 43A Wilson Ave.,Edens Expy N,Chicago,Cook,IL,60630,US,US/Central,KORD,2022-08-19 05:51:00,68.0,68.0,73.0,29.23,10.0,SSW,7.0,0.0,Partly Cloudy,False,False,False,False,False,False,False,False,False,False,False,False,False,Night,Night,Day,Day
A-533035,Source2,3,2022-08-19 05:08:56+00:00,2022-08-19 05:38:40+00:00,41.976749,-87.746803,,,0.0,Lane blocked due to crash on I-94 Edens Expy Westbound at Exit 42 Foster Ave.,,Chicago,Cook,IL,60630,US,US/Central,KORD,2022-08-19 04:51:00,69.0,69.0,70.0,29.23,10.0,SSW,7.0,0.0,Partly Cloudy,False,False,False,False,False,False,False,False,False,False,False,False,False,Night,Night,Day,Day
A-533217,Source2,2,2022-08-18 04:34:00+00:00,2022-08-18 05:19:02+00:00,41.89748,-87.658928,,,0.1700000017881393,Exit ramp from I-90 Westbound at Exit 49B to Augusta Blvd Westbound lane blocked due to crash.,Kennedy Expy W,Chicago,Cook,IL,60642,US,US/Central,KMDW,2022-08-18 04:53:00,65.0,65.0,78.0,29.39,10.0,W,3.0,0.0,Fair,False,False,False,False,True,False,False,False,False,False,False,False,False,Night,Night,Night,Day
A-533218,Source2,1,2022-08-18 04:19:45+00:00,2022-08-18 05:19:26+00:00,41.903919,-87.63147,,,0.0,Crash on Division St at Clark St.,N Clark St,Chicago,Cook,IL,60610-2818,US,US/Central,KMDW,2022-08-18 03:53:00,67.0,67.0,79.0,29.38,10.0,CALM,0.0,0.0,Fair,True,False,True,False,False,False,True,False,True,False,False,True,False,Night,Night,Night,Day
A-533434,Source2,3,2022-08-18 17:50:46+00:00,2022-08-18 18:20:15+00:00,41.793404,-87.631622,,,0.0,Lane blocked due to crash on I-90 Dan Ryan Expy Eastbound at Garfield Blvd\t.,Dan Ryan Expy E,Chicago,Cook,IL,60621,US,US/Central,KMDW,2022-08-18 17:53:00,84.0,84.0,37.0,29.29,10.0,WSW,10.0,0.0,Mostly Cloudy,False,False,False,False,False,False,False,False,False,False,False,False,False,Day,Day,Day,Day
A-533904,Source2,3,2022-08-18 08:38:07+00:00,2022-08-18 09:22:41+00:00,41.859062,-87.644432,,,0.0,Lane blocked due to crash on I-90 Dan Ryan Express Lane Eastbound at Exit 52 17th St.,Dan Ryan Expy E,Chicago,Cook,IL,60616,US,US/Central,KMDW,2022-08-18 08:53:00,74.0,74.0,53.0,29.38,10.0,SW,5.0,0.0,Fair,False,False,False,False,False,False,False,False,False,False,False,False,False,Day,Day,Day,Day
A-533908,Source2,1,2022-08-18 08:36:37+00:00,2022-08-18 09:22:14+00:00,41.910961,-87.645844,,,0.0,Crash on IL-64 North Ave at Orchard St.,N Orchard St,Chicago,Cook,IL,60614-5114,US,US/Central,KMDW,2022-08-18 08:53:00,74.0,74.0,53.0,29.38,10.0,SW,5.0,0.0,Fair,False,False,True,False,False,False,False,False,True,False,False,False,False,Day,Day,Day,Day
A-533998,Source2,3,2022-08-18 09:30:30+00:00,2022-08-18 10:01:00+00:00,41.739185,-87.624641,,,0.0,Lane blocked due to crash on I-94 Dan Ryan Expy Westbound near Exit 61B State St.,Dan Ryan Expy W,Chicago,Cook,IL,60620,US,US/Central,KMDW,2022-08-18 09:53:00,78.0,78.0,42.0,29.37,10.0,VAR,5.0,0.0,Fair,False,False,False,False,False,False,True,False,False,False,False,False,False,Day,Day,Day,Day
A-534099,Source2,1,2022-08-18 07:29:28+00:00,2022-08-18 08:15:07+00:00,41.876884,-87.63969399999998,,,0.0,Crash on Van Buren St near Canal St.,S Canal St,Chicago,Cook,IL,60606,US,US/Central,KMDW,2022-08-18 07:53:00,71.0,71.0,68.0,29.39,10.0,CALM,0.0,0.0,Fair,True,False,True,False,False,False,False,False,False,False,False,True,False,Day,Day,Day,Day
A-534125,Source2,3,2022-08-18 07:52:55+00:00,2022-08-18 08:22:26+00:00,41.98217800000001,-87.801826,,,0.0,Lane blocked due to crash on I-90 Kennedy Expy Eastbound at Exit 81 Sayre Ave.,I-90 E,Chicago,Cook,IL,60656,US,US/Central,KORD,2022-08-18 07:51:00,68.0,68.0,70.0,29.33,10.0,CALM,0.0,0.0,Fair,False,False,False,False,False,False,False,False,False,False,False,False,False,Day,Day,Day,Day
A-534171,Source2,3,2022-08-18 06:13:11+00:00,2022-08-18 06:42:57+00:00,41.876186,-87.660774,,,0.0,Lane blocked due to crash on I-290 Eisenhower Expy Eastbound at Exit 28B Racine Ave.,W Van Buren St,Chicago,Cook,IL,60607,US,US/Central,KMDW,2022-08-18 05:53:00,65.0,65.0,78.0,29.39,10.0,CALM,0.0,0.0,Fair,False,False,False,False,False,False,False,False,False,False,False,False,False,Day,Day,Day,Day
A-534228,Source2,3,2022-08-18 07:06:32+00:00,2022-08-18 07:35:48+00:00,41.819401,-87.630196,,,0.0,Lane blocked due to crash on I-90 Dan Ryan Expy Westbound at Exit 56 Root St.,I-90 Express Lane,Chicago,Cook,IL,60609,US,US/Central,KMDW,2022-08-18 06:53:00,66.0,66.0,78.0,29.39,10.0,CALM,0.0,0.0,Fair,False,False,False,False,False,False,False,False,False,False,False,False,False,Day,Day,Day,Day
A-534255,Source2,3,2022-08-18 05:50:40+00:00,2022-08-18 06:20:15+00:00,41.881905,-87.646156,,,0.0,Lane blocked due to crash on I-90 Kennedy Expy Westbound at Exit 51E Madison St.,W Madison St,Chicago,Cook,IL,60661,US,US/Central,KMDW,2022-08-18 05:53:00,65.0,65.0,78.0,29.39,10.0,CALM,0.0,0.0,Fair,False,False,True,False,True,False,False,False,False,False,False,False,False,Night,Day,Day,Day
A-534297,Source2,3,2022-08-18 06:38:47+00:00,2022-08-18 07:23:44+00:00,41.87145200000001,-87.744743,,,0.0,Lane blocked due to crash on I-290 Eisenhower Expy Eastbound at Exit 24B IL-50 Cicero Ave.,Eisenhower Expy,Chicago,Cook,IL,60644,US,US/Central,KMDW,2022-08-18 06:53:00,66.0,66.0,78.0,29.39,10.0,CALM,0.0,0.0,Fair,False,False,True,False,False,False,False,False,False,False,False,True,False,Day,Day,Day,Day
A-534299,Source2,1,2022-08-18 06:37:51+00:00,2022-08-18 07:07:39+00:00,42.319469,-87.866493,,,0.0,Crash on IL-131 Green Bay Rd at Ml King Jr Dr.,Green Bay Rd,North Chicago,Lake,IL,60064,US,US/Central,KUGN,2022-08-18 06:55:00,61.0,61.0,90.0,29.28,9.0,CALM,0.0,0.0,Fair,False,False,False,False,False,False,False,False,False,False,False,True,False,Day,Day,Day,Day
A-534329,Source2,3,2022-08-18 06:48:47+00:00,2022-08-18 07:18:18+00:00,41.851414,-87.645065,,,0.0,Lane blocked due to crash on I-90 Dan Ryan Express Lane Westbound at Exit 54 Chinatown Feeder.,Dan Ryan Expy W,Chicago,Cook,IL,60616,US,US/Central,KMDW,2022-08-18 06:53:00,66.0,66.0,78.0,29.39,10.0,CALM,0.0,0.0,Fair,False,False,False,False,False,False,False,False,False,False,False,False,False,Day,Day,Day,Day
A-534419,Source2,2,2022-08-17 03:47:41+00:00,2022-08-17 04:40:30+00:00,41.814831,-87.63041700000002,,,0.0,Crash on I-90 Dan Ryan Expy Eastbound at Exit 56B 43rd St.,I-90 Express Lane,Chicago,Cook,IL,60609,US,US/Central,KMDW,2022-08-17 03:53:00,65.0,65.0,81.0,29.42,10.0,NW,3.0,0.0,Fair,False,False,False,False,False,False,True,False,False,False,False,False,False,Night,Night,Night,Night
A-534961,Source2,2,2022-08-17 05:20:13+00:00,2022-08-17 06:08:02+00:00,41.98188,-87.80751,,,0.0,Crash on I-90 Kennedy Expy Westbound at IL-43 Harlem Ave.,I-90 E,Chicago,Cook,IL,60656,US,US/Central,KORD,2022-08-17 04:51:00,63.0,63.0,87.0,29.37,10.0,NNW,5.0,0.0,Fair,False,False,False,False,False,False,False,False,False,False,False,False,False,Night,Night,Day,Day
A-534977,Source2,3,2022-08-17 09:27:15+00:00,2022-08-17 09:56:58+00:00,41.925976,-87.68445600000004,,,0.0,Lane blocked due to crash on I-90 Kennedy Expy Eastbound at Exit 47A Fullerton Ave.,I-90 Express Lane,Chicago,Cook,IL,60647,US,US/Central,KMDW,2022-08-17 09:53:00,80.0,80.0,54.0,29.46,10.0,E,3.0,0.0,Fair,False,False,False,False,False,False,False,False,False,False,False,False,False,Day,Day,Day,Day
A-535006,Source2,3,2022-08-17 07:56:38+00:00,2022-08-17 08:25:45+00:00,41.855312,-87.644539,,,0.0,Lane blocked due to crash on I-90 Dan Ryan Express Lane Westbound at Exit 51H I-55.,Dan Ryan Expy N,Chicago,Cook,IL,60616,US,US/Central,KMDW,2022-08-17 07:53:00,73.0,73.0,71.0,29.46,10.0,NNE,6.0,0.0,Fair,False,False,False,False,False,False,False,False,False,False,False,False,False,Day,Day,Day,Day
A-535007,Source2,3,2022-08-17 08:57:19+00:00,2022-08-17 09:54:20+00:00,41.941059,-87.71266899999998,,,0.0,Lane blocked due to crash on I-90 Kennedy Expy Eastbound at Exits 45B 45C Avondale Ave.,Kennedy Expy E,Chicago,Cook,IL,60618,US,US/Central,KORD,2022-08-17 08:51:00,74.0,74.0,71.0,29.41,10.0,NE,8.0,0.0,Fair,False,False,False,False,False,False,False,False,False,False,False,False,False,Day,Day,Day,Day
A-535008,Source3,1,2022-08-17 08:42:44+00:00,2022-08-17 09:12:14+00:00,41.961788,-87.654739,,,0.0,Crash on Montrose Ave at Sheridan Rd.,W Montrose Ave,Chicago,Cook,IL,60613-1410,US,US/Central,KMDW,2022-08-17 08:53:00,76.0,76.0,67.0,29.46,10.0,NE,3.0,0.0,Fair,True,False,True,False,False,False,False,False,True,False,False,True,False,Day,Day,Day,Day
A-535134,Source2,3,2022-08-17 07:41:59+00:00,2022-08-17 08:28:18+00:00,41.714443,-87.642914,,,0.0,Lane blocked due to crash on I-57 Northbound at Exit 357 99th St.,S Halsted St,Chicago,Cook,IL,60628,US,US/Central,KMDW,2022-08-17 07:53:00,73.0,73.0,71.0,29.46,10.0,NNE,6.0,0.0,Fair,False,False,True,False,False,False,False,False,True,False,False,True,False,Day,Day,Day,Day
A-535172,Source2,3,2022-08-17 07:52:43+00:00,2022-08-17 08:39:06+00:00,41.954742,-87.73266600000002,,,0.0,Lane blocked due to crash on I-90 Kennedy Expy Eastbound at Exit 44A IL-19 Irving Park Rd.,I-90 Express Lane,Chicago,Cook,IL,60641,US,US/Central,KORD,2022-08-17 07:51:00,68.0,68.0,84.0,29.4,10.0,NNE,8.0,0.0,Fair,False,False,False,False,False,False,False,False,False,False,False,False,False,Day,Day,Day,Day
A-535196,Source2,2,2022-08-17 08:40:43+00:00,2022-08-17 09:10:02+00:00,41.940506,-87.63820600000004,,,0.0,Lane blocked due to crash on Jean Baptiste Pointe Dusable Lk Shr Dr Southbound at Belmont Ave.,W Belmont Ave,Chicago,Cook,IL,60657,US,US/Central,KMDW,2022-08-17 08:53:00,76.0,76.0,67.0,29.46,10.0,NE,3.0,0.0,Fair,False,False,True,False,False,False,False,False,False,False,False,True,False,Day,Day,Day,Day
A-535291,Source2,3,2022-08-17 07:32:03+00:00,2022-08-17 08:01:42+00:00,41.946358,-87.718597,,,0.0,Lane blocked due to crash on I-90 Kennedy Expy Eastbound at Exit 45A Addison St.,Kennedy Expy E,Chicago,Cook,IL,60618,US,US/Central,KORD,2022-08-17 07:51:00,68.0,68.0,84.0,29.4,10.0,NNE,8.0,0.0,Fair,False,False,False,False,False,False,False,False,True,False,False,False,False,Day,Day,Day,Day
A-535354,Source2,3,2022-08-17 06:56:46+00:00,2022-08-17 07:26:19+00:00,41.660538,-87.588875,,,0.0,Lane blocked due to crash on I-94 Bishop Ford Fwy Eastbound at Exits 68A 68B 130th St.,Bishop Ford Fwy W,Chicago,Cook,IL,60633,US,US/Central,KGYY,2022-08-17 06:45:00,66.0,66.0,100.0,29.48,0.25,CALM,0.0,0.0,Fog,False,False,False,False,True,False,False,False,False,False,False,False,False,Day,Day,Day,Day
A-535477,Source2,3,2022-08-17 05:58:47+00:00,2022-08-17 07:00:55+00:00,41.688717,-87.599983,,,0.0,Lane blocked due to crash on I-94 Bishop Ford Fwy Westbound at Exits 66A 66B 115th St.,Bishop Ford Fwy W,Chicago,Cook,IL,60628,US,US/Central,KMDW,2022-08-17 05:53:00,66.0,66.0,78.0,29.44,10.0,N,6.0,0.0,Fair,False,False,False,False,False,False,False,False,False,False,False,False,False,Night,Day,Day,Day
A-535478,Source2,3,2022-08-17 05:59:22+00:00,2022-08-17 07:00:52+00:00,41.981651,-87.878563,,,0.0,Lane blocked due to crash on I-190 Westbound at Exits 2A 2B US-12 Mannheim Rd.,Mannheim Rd,Chicago,Cook,IL,60666,US,US/Central,KORD,2022-08-17 05:51:00,62.0,62.0,90.0,29.38,10.0,N,6.0,0.0,Fair,False,False,False,False,False,False,False,False,False,False,False,False,False,Night,Day,Day,Day
A-536858,Source2,3,2022-08-15 09:30:50+00:00,2022-08-15 10:00:33+00:00,41.822742,-87.724884,,,0.0,Lane blocked due to crash on I-55 Stevenson Expy Northbound at Exit 287 Pulaski Rd.,Stevenson Expy N,Chicago,Cook,IL,60632,US,US/Central,KMDW,2022-08-15 09:53:00,76.0,76.0,56.0,29.38,10.0,ENE,14.0,0.0,Fair,False,False,False,False,False,False,False,False,False,False,False,False,False,Day,Day,Day,Day
A-537108,Source2,2,2022-08-15 08:08:40+00:00,2022-08-15 08:53:32+00:00,42.308701,-87.876785,,,0.0,Lane blocked due to crash on US-41 Skokie Hwy Northbound at IL-137 Buckley Rd.,N Skokie Hwy,North Chicago,Lake,IL,60064,US,US/Central,KUGN,2022-08-15 07:55:00,68.0,68.0,81.0,29.27,10.0,NE,5.0,0.0,Mostly Cloudy,False,False,True,False,False,False,True,False,False,False,False,True,False,Day,Day,Day,Day
A-537109,Source2,2,2022-08-15 08:08:08+00:00,2022-08-15 08:52:46+00:00,42.308701,-87.876785,,,0.0,Lane blocked due to crash on US-41 Skokie Hwy Southbound at IL-137 Buckley Rd.,N Skokie Hwy,North Chicago,Lake,IL,60064,US,US/Central,KUGN,2022-08-15 07:55:00,68.0,68.0,81.0,29.27,10.0,NE,5.0,0.0,Mostly Cloudy,False,False,True,False,False,False,True,False,False,False,False,True,False,Day,Day,Day,Day
A-537639,Source2,3,2022-08-14 13:57:53+00:00,2022-08-14 14:57:18+00:00,41.817348,-87.74282099999998,,,0.0,Lane blocked due to crash on I-55 Stevenson Expy Southbound at Exit 286 / IL-50 Cicero Ave.,Adlai E Stevenson Expy N,Chicago,Cook,IL,60632,US,US/Central,KMDW,2022-08-14 13:53:00,74.0,74.0,68.0,29.26,10.0,NNE,17.0,0.0,Cloudy,False,False,False,False,False,False,False,False,False,False,False,False,False,Day,Day,Day,Day
A-537855,Source2,3,2022-08-13 11:53:21+00:00,2022-08-13 12:22:55+00:00,41.694263,-87.659653,,,0.0,Lane blocked due to crash on I-57 Northbound at Exit 355 111th St.,W 110th St,Chicago,Cook,IL,60643-3620,US,US/Central,KMDW,2022-08-13 11:53:00,77.0,77.0,48.0,29.41,10.0,SSW,15.0,0.0,Mostly Cloudy,False,False,False,False,False,False,False,False,False,False,False,False,False,Day,Day,Day,Day
A-537977,Source2,3,2022-08-13 13:47:11+00:00,2022-08-13 14:31:36+00:00,41.846886,-87.62861600000002,,,0.0,2 right lane blocked due to crash on I-55 Northbound at I-90 / Exit 53C.,Stevenson Expy N,Chicago,Cook,IL,60616,US,US/Central,KMDW,2022-08-13 13:53:00,78.0,78.0,46.0,29.34,10.0,S,17.0,0.0,Mostly Cloudy,False,False,False,False,False,False,False,False,False,False,False,False,False,Day,Day,Day,Day
